Адрес,Широта,Долгота
"Республика Бурятия, Улан-Удэ, ул. имени Д.Ц. Дашиева, 7",,
"мкр. 148-А, стр. 2",,
"Республика Бурятия, Улан-Удэ, мкр-н Энергетик, 41",,
"Республика Бурятия, Улан-Удэ, ул. Ленина, 19",51.824117,107.5847894
"Республика Бурятия, Улан-Удэ, мкр-н Загорск, ул. Балдынова, 9",,
"Республика Бурятия, Улан-Удэ, ул. Жердева, 94",51.80848325,107.66086489158072
"Республика Бурятия, Улан-Удэ, Геологическая ул., 30",51.8101189,107.6076795
"Республика Бурятия, Улан-Удэ, ул. Маяковского, 5",51.843700850000005,107.60159003175119
"Республика Бурятия, Улан-Удэ, ул. Смолина, 81",51.8397938,107.576816
"Республика Бурятия, Улан-Удэ, Солнечная ул., 23",51.81142035,107.6149629
"Республика Бурятия, Улан-Удэ, пр-т 50 лет Октября, 17",,
"Республика Бурятия, Улан-Удэ, Тобольская ул., 163",51.8186932,107.66904191024193
"ул. Боевая/Конечная, блоки 18-22",,
"Республика Бурятия, Улан-Удэ, ул. Калашникова, 11",51.806249,107.654157
"Республика Бурятия, Улан-Удэ, ул. Борсоева, 73",51.84368945,107.57193782011629
"Республика Бурятия, Улан-Удэ, Путейская ул., 3",51.84453405,107.58074004828921
"Республика Бурятия, Улан-Удэ, ул. Чайковского, 16",51.85906145,107.71758295000001
"Республика Бурятия, Улан-Удэ, ул. Фрунзе, 14",51.82807505,107.59477969485879
"Республика Бурятия, Улан-Удэ, 105-й мкр-н, 25",,
"Республика Бурятия, Улан-Удэ, ул. Тулаева, 150",51.8193782,107.6808211
"Республика Бурятия, Улан-Удэ, ул. Трубачеева, 152А",51.81539845,107.61860015874177
"Республика Бурятия, Улан-Удэ, ул. Смолина, 46",51.8411379,107.577057
"Республика Бурятия, Улан-Удэ, мкр-н Стеклозавод, Хрустальная ул., 7",,
"Республика Бурятия, Улан-Удэ, ул. Жуковского, 23",51.8487023,107.58562975
"Республика Бурятия, Улан-Удэ, ул. Жердева, 70",51.80526865,107.65839399625605
"Республика Бурятия, Улан-Удэ, 110-й мкр-н, 3",,
"Республика Бурятия, Улан-Удэ, 105-й мкр-н, 33",,
"Республика Бурятия, Улан-Удэ, 112-й мкр-н, 31",,
"Республика Бурятия, Улан-Удэ, ул. Мира",,
"Республика Бурятия, Улан-Удэ, Солнечная ул., 5",51.81246795,107.61032445035221
"Республика Бурятия, Улан-Удэ, ул. Борсоева, 73",51.84368945,107.57193782011629
"Республика Бурятия, Улан-Удэ, ул. Жердева, 132",51.8110592,107.66419347926175
"Республика Бурятия, Улан-Удэ, ул. Антонова, 2",,
"Республика Бурятия, Улан-Удэ, ул. Цивилева, 50",51.8431894,107.58557793424758
"Республика Бурятия, Улан-Удэ, Октябрьская ул., 25",51.8442893,107.6245504191015
"Республика Бурятия, Улан-Удэ, Ключевская ул., 26",51.819591349999996,107.63364592492351
"Республика Бурятия, Улан-Удэ, Октябрьская ул., 37",51.8435609,107.63043164999999
"Республика Бурятия, Улан-Удэ, мкр-н Вагжанова, Дивизионная ул. 1-й участок, 1",,
"Республика Бурятия, Улан-Удэ, ул. Иванова, 19",51.84545785,107.6352026
"мкр. 104-й , д. 5",,
"Республика Бурятия, Улан-Удэ, 105-й мкр-н, 29",,
"Республика Бурятия, Улан-Удэ, 102-й мкр-н, ул. Ринчино, 28",,
"Республика Бурятия, Улан-Удэ, 112-й мкр-н, 30",,
"Республика Бурятия, Улан-Удэ, Комсомольская ул., 42",51.84467395,107.62510914214755
"Республика Бурятия, Улан-Удэ, ул. Революции 1905 года, 12",51.833726850000005,107.595449736649
"Республика Бурятия, Улан-Удэ, Ключевская ул., 23",51.8220155,107.63302144630887
"Республика Бурятия, Улан-Удэ, пр-т Строителей, 12",,
"Республика Бурятия, Улан-Удэ, Комсомольская ул., 6В",51.8451881,107.6250455
"мкр. 142, д. 4",32.9256796,35.15813
"Республика Бурятия, Улан-Удэ, ул. Лебедева, 3Б",51.8216053,107.62708862260965
"мкр. 148-А, стр. 3",,
"Республика Бурятия, Улан-Удэ, 105-й мкр-н, 33",,
"Республика Бурятия, Улан-Удэ, Тобольская ул., 43",51.815924249999995,107.65913630418537
"Республика Бурятия, Улан-Удэ, ул. Смолина, 79",51.839248,107.576827
"ул. Корабельная, д. 47",55.8382392,52.7399859
"Республика Бурятия, Улан-Удэ, ул. Пушкина, 3",51.835385349999996,107.6011545553796
"Республика Бурятия, Улан-Удэ, Краснофлотская ул., 26А",51.8176704,107.66968153536585
"Республика Бурятия, Улан-Удэ, пр-т Строителей, 66",,
"Республика Бурятия, Улан-Удэ, 110-й мкр-н, 6/1",,
"Республика Бурятия, Улан-Удэ, Тобольская ул., 39",51.816728850000004,107.65909214886553
"Республика Бурятия, Улан-Удэ, ул. Сенчихина, 1",51.8495962,107.57231954362355
"Республика Бурятия, Улан-Удэ, Партизанская ул., 29",51.8424457,107.5731598
"Республика Бурятия, Улан-Удэ, мкр-н Энергетик, 56А",,
"Республика Бурятия, Улан-Удэ, ул. Жердева, 132",51.8110592,107.66419347926175
"Республика Бурятия, Улан-Удэ, пр-т Строителей, 60",,
"Республика Бурятия, Улан-Удэ, ул. Гагарина, 73А",51.85010235,107.57574779029744
"Республика Бурятия, Улан-Удэ, 111-й мкр-н, 34",,
"Республика Бурятия, Улан-Удэ, 111-й мкр-н, 3",,
"Республика Бурятия, Улан-Удэ, ул. Банзарова, 30",51.8231448,107.5827563
"Республика Бурятия, Улан-Удэ, ул. Смолина, 79",51.839243,107.5769207
"Республика Бурятия, Улан-Удэ, Тобольская ул., 163",51.8186932,107.66904191024193
"Республика Бурятия, Улан-Удэ, Кабанская ул., 18",51.84786269999999,107.51308655
"Республика Бурятия, Улан-Удэ, мкр-н Аэропорт, 27",,
"Республика Бурятия, Улан-Удэ, ул. Шумяцкого, 14",51.81247785,107.67317641395552
"Республика Бурятия, Улан-Удэ, ул. Пушкина, 35",51.849668550000004,107.57975865260599
"Республика Бурятия, Улан-Удэ, 47-й квартал, Конечная ул., 7",51.80691950000001,107.63858883290443
"Республика Бурятия, Улан-Удэ, ул. Павлова, 15",51.80697855,107.61411288650453
"Республика Бурятия, Улан-Удэ, ул. Буйко, 20А",51.8485742,107.62025881892949
"Республика Бурятия, Улан-Удэ, Ермаковская ул., 37",,
"Республика Бурятия, Улан-Удэ, ул. Мокрова, 24",51.80445265,107.64934911858333
"Республика Бурятия, Улан-Удэ, Профсоюзная ул., 40",51.83100225,107.58916242340706
"Республика Бурятия, Улан-Удэ, мкр-н Энергетик, 40",,
"Республика Бурятия, Улан-Удэ, пер. Толстого, 2",51.8251525,107.6005238
"Республика Бурятия, Улан-Удэ, Тобольская ул., 59",51.81550935,107.66450569819743
"Республика Бурятия, Улан-Удэ, ул. Смолина, 46",51.837674,107.5772993
"Республика Бурятия, Улан-Удэ, б-р Карла Маркса, 7А",,
"кв-л 115, стр. 17",,
"Республика Бурятия, Улан-Удэ, б-р Карла Маркса, 17",,
"Республика Бурятия, Улан-Удэ, ул. Революции 1905 года, 32А",51.8377818,107.59119582699404
"Республика Бурятия, Улан-Удэ, ул. Комарова, 21",51.8565425,107.7050007
"Республика Бурятия, Улан-Удэ, Ключевская ул., 90В",51.8215801,107.6302315
"мкр. 148-А, стр. 1",,
"Республика Бурятия, Улан-Удэ, ул. Буйко, 19",51.847737949999996,107.62308295
"Республика Бурятия, Улан-Удэ, ул. Бабушкина, 17",51.81070015,107.59717950000001
"Республика Бурятия, Улан-Удэ, ул. Антонова, 18",,
"Республика Бурятия, Улан-Удэ, Краснофлотская ул., 26А",51.8176704,107.66968153536585
"Республика Бурятия, Улан-Удэ, ул. Сентарецкого, 23",51.851690149999996,107.6168534
"Республика Бурятия, Улан-Удэ, ул. Жердева, 46",51.808312099999995,107.65727810000001
"Республика Бурятия, Улан-Удэ, пр-т 50 лет Октября, 42",,
"Республика Бурятия, Улан-Удэ, ул. Строителей, 30",51.84245585,107.51642398410041
"Республика Бурятия, Улан-Удэ, Краснофлотская ул., 8",51.81350449999999,107.66788780584956
"Республика Бурятия, Улан-Удэ, пр-т Строителей, 68",,
"Республика Бурятия, Улан-Удэ, ул. Жуковского, 23",51.8487023,107.58562975
"ул. Бабушкина, стр. 1",56.3608262,61.9866203
"Республика Бурятия, Улан-Удэ, ул. Жуковского, 23",51.8487023,107.58562975
"105-й мкр., стр. 1",,
"Республика Бурятия, Улан-Удэ, мкр-н 140А, 5",,
"Республика Бурятия, Улан-Удэ, ул. Добролюбова, 7",51.846457799999996,107.58656585
"Республика Бурятия, Улан-Удэ, Ключевская ул., 144",51.82006375,107.66535947290282
"Республика Бурятия, Улан-Удэ, Ключевская ул., 76А",51.819687200000004,107.65844340394648
"мкр. 128/ул. им. Дашиева, жилые дома",,
"Республика Бурятия, Улан-Удэ, Геологическая ул., 23",51.8123627,107.60408363474346
"Республика Бурятия, Улан-Удэ, ул. Революции 1905 года, 16",51.83533315,107.59317525659921
"Республика Бурятия, Улан-Удэ, пр-т Строителей, 44",,
"ул. Москалёва, стр. 12",,
"Республика Бурятия, Улан-Удэ, мкр-н Стеклозавод, Керамическая ул., 6",,
"Республика Бурятия, Улан-Удэ, мкр-н Энергетик, 35",,
"Республика Бурятия, Улан-Удэ, мкр-н Южный, ул. Бограда, 61",,
"Республика Бурятия, Улан-Удэ, 110-й мкр-н, 14",,
"Республика Бурятия, Улан-Удэ, Профсоюзная ул., 35",51.8321642,107.5913658164844
"Республика Бурятия, Улан-Удэ, Ключевская ул., 60Б/4",51.8215801,107.6302315
"Республика Бурятия, Улан-Удэ, ул. Бабушкина, 178",51.8001946,107.60391073074203
"Республика Бурятия, Улан-Удэ, 110-й мкр-н, 14",,
"пр-т Строителей, стр. 5А",,
"Республика Бурятия, Улан-Удэ, ул. Комарова, 11",51.86182565,107.71764287600473
"Республика Бурятия, г.о. Улан-Удэ,Октябрьский район, Горхонская ул., 9",,
"Республика Бурятия, Улан-Удэ, ул. Гагарина, 31",51.8402793,107.59210225000001
"Республика Бурятия, Улан-Удэ, Октябрьская ул., 46",51.8426657,107.62884595
"Республика Бурятия, Улан-Удэ, Солнечная ул., 27",51.81088965,107.6162686
"Республика Бурятия, Улан-Удэ, мкр-н 148А",,
"Республика Бурятия, Улан-Удэ, ул. Гагарина, 41",51.84236745,107.58854401478396
"Республика Бурятия, Улан-Удэ, ул. Строителей, 41",51.84137165,107.51656201791582
"Республика Бурятия, Улан-Удэ, Октябрьская ул., 24",51.8466955,107.61649997740788
"Республика Бурятия, Улан-Удэ, мкр-н Энергетик, 37",,
"Республика Бурятия, Улан-Удэ, ул. Пушкина, 33",51.84694815,107.58423966407533
"Республика Бурятия, Улан-Удэ, ул. Борсоева, 73",51.84368945,107.57193782011629
"ул. Москалёва, стр. 12",,
"Республика Бурятия, Улан-Удэ, мкр-н Энергетик, 42",,
"Республика Бурятия, Улан-Удэ, ул. Борсоева, 23",51.8393239,107.58030044039918
"Республика Бурятия, Улан-Удэ, Пристанская ул., 10",51.84209225,107.57356261504745
"Республика Бурятия, Улан-Удэ, Октябрьская ул., 37",51.8440808,107.63087430038672
"Республика Бурятия, Улан-Удэ, ул. Калашникова, 18",51.807385499999995,107.64566357612063
"Республика Бурятия, Улан-Удэ, ул. Павлова, 65",51.80716125,107.62443724631424
"мкр. 148-А, стр. 2",,
"Республика Бурятия, Улан-Удэ, Ключевская ул., 66",51.821296700000005,107.65223091655173
"Республика Бурятия, Улан-Удэ, пр-т 50 лет Октября, 21",,
"Республика Бурятия, Улан-Удэ, ул. имени Д.Ц. Дашиева, 4",,
"Республика Бурятия, Улан-Удэ, 111-й мкр-н",,
"Республика Бурятия, Улан-Удэ, 105-й мкр-н, 31",,
"Республика Бурятия, Улан-Удэ, ул. Жердева, 64",51.80541195,107.65573280626333
"Республика Бурятия, Улан-Удэ, пр-т 50 лет Октября, 25А",,
"ул. Бабушкина, стр. 1",59.5721416,60.6137539
"Республика Бурятия, Улан-Удэ, Ключевская ул., 6Д",51.8217809,107.6413895
"Республика Бурятия, Улан-Удэ, 115-й мкр-н, 8",,
"Республика Бурятия, Улан-Удэ, ул. Жердева, 58",51.8060243,107.6549301
"Республика Бурятия, Улан-Удэ, ул. Сахьяновой, 19",51.8053904,107.6237297
"Республика Бурятия, Улан-Удэ, ул. Терешковой, 38",51.8100943,107.61448990040572
"Республика Бурятия, Улан-Удэ, ул. Бабушкина, 27",51.80439085,107.60413932318343
"Республика Бурятия, Улан-Удэ, ул. Павлова, 7",51.80765555,107.6128874
"Республика Бурятия, Улан-Удэ, б-р Карла Маркса, 31",,
"Республика Бурятия, Улан-Удэ, ул. Гагарина, 53",51.8459117,107.58222964999999
"Республика Бурятия, Улан-Удэ, ул. Лимонова, 6",51.8425268,107.61685944999999
"Республика Бурятия, Улан-Удэ, мкр-н Новая Комушка, Яблоневый пер., 19",,
"Республика Бурятия, Улан-Удэ, Корабельная ул., 47",51.83256215,107.57801470175474
"Республика Бурятия, Улан-Удэ, Октябрьская ул., 33",51.8434544,107.62966696528744
"Республика Бурятия, Улан-Удэ, ул. Революции 1905 года, 102",51.8504775,107.56981730259707
"Республика Бурятия, Улан-Удэ, Тобольская ул., 41",51.8162559,107.6586679134798
"Республика Бурятия, Улан-Удэ, Боевая ул., 9А",51.80788015,107.62739069244557
"Республика Бурятия, Улан-Удэ, Краснофлотская ул., 8",51.81350449999999,107.66788780584956
"Республика Бурятия, Улан-Удэ, ул. Жердева, 64",51.80541195,107.65573280626333
"Республика Бурятия, Улан-Удэ, ул. Добролюбова, 2А",51.84797125,107.59154427227637
"Республика Бурятия, Улан-Удэ, б-р Карла Маркса, 23",,
"Республика Бурятия, Улан-Удэ, мкр-н Восточный, ул. Микояна, 1",,
"Республика Бурятия, Улан-Удэ, ул. Жердева, 46",51.808312099999995,107.65727810000001
"Республика Бурятия, Улан-Удэ, ул. Смолина, 38",51.83212455,107.58121926782013
"Республика Бурятия, Улан-Удэ, Октябрьская ул., 10",51.846372200000005,107.61213583906229
"ул. Трубачеева, д. 146А, блок В",,
"Республика Бурятия, Улан-Удэ, Ключевская ул., 57/1",51.8217809,107.6413895
"Республика Бурятия, Улан-Удэ, ул. Павлова, 80",51.8042021,107.62609677190304
"Республика Бурятия, Улан-Удэ, ул. Антонова, 24",,
"мкр. 148-А, стр. 1",,
"Республика Бурятия, Улан-Удэ, пр-т Строителей, 8",,
"Республика Бурятия, Улан-Удэ, ул. Жердева, 35",51.81838775,107.6366298375
"Республика Бурятия, Улан-Удэ, Геологическая ул., 17",51.8115213,107.60564945
"Республика Бурятия, Улан-Удэ, 115-й мкр-н, 8",,
"Республика Бурятия, Улан-Удэ, Октябрьская ул., 37",51.8435609,107.63043164999999
"Республика Бурятия, Улан-Удэ, ул. Мокрова, 28А",51.804455000000004,107.65202450473791
"Республика Бурятия, Улан-Удэ, мкр-н 148А, 2/4",,
"Республика Бурятия, Улан-Удэ, 115-й мкр-н, 7",,
"Республика Бурятия, Улан-Удэ, ул. Мокрова, 46",51.8053037,107.6427817
"Республика Бурятия, Улан-Удэ, мкр-н 148А, 1/1",,
"мкр. 106-й, стр. 2, корп. 1",,
"Республика Бурятия, Улан-Удэ, 47-й квартал, Конечная ул., 8",51.808116299999995,107.63840458580873
"Республика Бурятия, Улан-Удэ, ул. Димитрова, 1",,
"Республика Бурятия, Улан-Удэ, Ключевская ул., 45",51.8226209,107.64061271719748
"Республика Бурятия, Улан-Удэ, Ключевская ул., 6Д",51.8217073,107.6501503
"Республика Бурятия, Улан-Удэ, пр-т Строителей, 60",,
"Республика Бурятия, Улан-Удэ, 110-й мкр-н, 5",,
"Республика Бурятия, Улан-Удэ, ул. Лимонова, 1",51.8447446,107.6114624990231
"Республика Бурятия, г.о. Улан-Удэ,Октябрьский район, Горхонская ул., 9",,
"Республика Бурятия, Улан-Удэ, ул. Жердева, 42",51.81001655,107.65760996281173
"Республика Бурятия, Улан-Удэ, Геологическая ул., 18",51.810546200000005,107.60121635
"Республика Бурятия, Улан-Удэ, мкр-н 148А, 1/2",,
"Республика Бурятия, Улан-Удэ, Октябрьская ул., 46",51.8426657,107.62884595
"Республика Бурятия, Улан-Удэ, 113-й мкр-н, 1",,
"Республика Бурятия, Улан-Удэ, Ключевская ул., 34",51.819451,107.63517212495711
"Республика Бурятия, Улан-Удэ, ул. Смолина, 42",51.83512175,107.57785455
"Республика Бурятия, Улан-Удэ, Солнечная ул., 23",51.81142035,107.6149629
"Республика Бурятия, Улан-Удэ, Мостовая ул., 8",51.81809715,107.58811754999999
"Республика Бурятия, Улан-Удэ, Боевая ул., 7В",51.806038900000004,107.63803305218937
"Республика Бурятия, Улан-Удэ, 111-й мкр-н",,
"Республика Бурятия, Улан-Удэ, 105-й мкр-н, 31",,
"Республика Бурятия, Улан-Удэ, ул. Жердева, 64",51.80541195,107.65573280626333
"Республика Бурятия, Улан-Удэ, пр-т 50 лет Октября, 25А",,
"ул. Бабушкина, стр. 1",59.8756064,30.4448925
"Республика Бурятия, Улан-Удэ, Ключевская ул., 6Д",51.8217073,107.6501503
"Республика Бурятия, Улан-Удэ, 115-й мкр-н, 8",,
"Республика Бурятия, Улан-Удэ, ул. Жердева, 58",51.8063185,107.65503724681484
"Республика Бурятия, Улан-Удэ, ул. Сахьяновой, 19",51.8053904,107.6237297
"Республика Бурятия, Улан-Удэ, ул. Терешковой, 38",51.8100943,107.61448990040572
"Республика Бурятия, Улан-Удэ, ул. Бабушкина, 27",51.80439085,107.60413932318343
"Республика Бурятия, Улан-Удэ, ул. Павлова, 7",51.80765555,107.6128874
"Республика Бурятия, Улан-Удэ, б-р Карла Маркса, 31",,
"Республика Бурятия, Улан-Удэ, ул. Гагарина, 53",51.8459117,107.58222964999999
"Республика Бурятия, Улан-Удэ, ул. Лимонова, 6",51.8425268,107.61685944999999
"Республика Бурятия, Улан-Удэ, мкр-н Новая Комушка, Яблоневый пер., 19",,
"Республика Бурятия, Улан-Удэ, Корабельная ул., 47",51.83256215,107.57801470175474
"Республика Бурятия, Улан-Удэ, Октябрьская ул., 33",51.8434544,107.62966696528744
"Республика Бурятия, Улан-Удэ, ул. Революции 1905 года, 102",51.8504775,107.56981730259707
"Республика Бурятия, Улан-Удэ, Тобольская ул., 41",51.816058600000005,107.65810883334458
"Республика Бурятия, Улан-Удэ, Боевая ул., 9А",51.80788015,107.62739069244557
"Республика Бурятия, Улан-Удэ, Краснофлотская ул., 8",51.81350449999999,107.66788780584956
"Республика Бурятия, Улан-Удэ, ул. Жердева, 64",51.80541195,107.65573280626333
"Республика Бурятия, Улан-Удэ, ул. Добролюбова, 2А",51.84797125,107.59154427227637
"Республика Бурятия, Улан-Удэ, б-р Карла Маркса, 23",,
"Республика Бурятия, Улан-Удэ, мкр-н Восточный, ул. Микояна, 1",,
"Республика Бурятия, Улан-Удэ, ул. Жердева, 46",51.808312099999995,107.65727810000001
"Республика Бурятия, Улан-Удэ, ул. Смолина, 38",51.83212455,107.58121926782013
"Республика Бурятия, Улан-Удэ, Октябрьская ул., 10",51.846372200000005,107.61213583906229
"ул. Трубачеева, д. 146А, блок В",,
"Республика Бурятия, Улан-Удэ, Ключевская ул., 57/1",51.8217073,107.6501503
"Республика Бурятия, Улан-Удэ, ул. Павлова, 80",51.8042021,107.62609677190304
"Республика Бурятия, Улан-Удэ, ул. Антонова, 24",,
"мкр. 148-А, стр. 1",,
"Республика Бурятия, Улан-Удэ, пр-т Строителей, 8",,
"Республика Бурятия, Улан-Удэ, ул. Жердева, 35",51.81838775,107.6366298375
"Республика Бурятия, Улан-Удэ, Геологическая ул., 17",51.8115213,107.60564945
"Республика Бурятия, Улан-Удэ, 115-й мкр-н, 8",,
"Республика Бурятия, Улан-Удэ, Октябрьская ул., 37",51.8435609,107.63043164999999
"Республика Бурятия, Улан-Удэ, ул. Мокрова, 28А",51.804455000000004,107.65202450473791
"Республика Бурятия, Улан-Удэ, мкр-н 148А, 2/4",,
"Республика Бурятия, Улан-Удэ, 115-й мкр-н, 7",,
"Республика Бурятия, Улан-Удэ, ул. Мокрова, 46",51.8053037,107.6427817
"Республика Бурятия, Улан-Удэ, мкр-н 148А, 1/1",,
"мкр. 106-й, стр. 2, корп. 1",,
"Республика Бурятия, Улан-Удэ, 47-й квартал, Конечная ул., 8",51.808116299999995,107.63840458580873
"Республика Бурятия, Улан-Удэ, ул. Димитрова, 1",,
"Республика Бурятия, Улан-Удэ, Ключевская ул., 45",51.8226209,107.64061271719748
"Республика Бурятия, Улан-Удэ, Ключевская ул., 6Д",51.8217073,107.6501503
"Республика Бурятия, Улан-Удэ, пр-т Строителей, 60",,
"Республика Бурятия, Улан-Удэ, 110-й мкр-н, 5",,
"Республика Бурятия, Улан-Удэ, ул. Лимонова, 1",51.8447446,107.6114624990231
"Республика Бурятия, г.о. Улан-Удэ,Октябрьский район, Горхонская ул., 9",,
"Республика Бурятия, Улан-Удэ, ул. Жердева, 42",51.81001655,107.65760996281173
"Республика Бурятия, Улан-Удэ, Геологическая ул., 18",51.810546200000005,107.60121635
"Республика Бурятия, Улан-Удэ, мкр-н 148А, 1/2",,
"Республика Бурятия, Улан-Удэ, Октябрьская ул., 46",51.8426657,107.62884595
"Республика Бурятия, Улан-Удэ, 113-й мкр-н, 1",,
"Республика Бурятия, Улан-Удэ, Ключевская ул., 34",51.819451,107.63517212495711
"Республика Бурятия, Улан-Удэ, ул. Смолина, 42",51.83512175,107.57785455
"Республика Бурятия, Улан-Удэ, Солнечная ул., 23",51.81142035,107.6149629
"Республика Бурятия, Улан-Удэ, Мостовая ул., 8",51.81809715,107.58811754999999
"Республика Бурятия, Улан-Удэ, Боевая ул., 7В",51.806038900000004,107.63803305218937
"Республика Бурятия, Улан-Удэ, ул. Лимонова, 6",51.8425268,107.61685944999999
"Республика Бурятия, Улан-Удэ, Солнечная ул., 31",51.810680399999995,107.6170018
"Республика Бурятия, Улан-Удэ, ул. Клыпина, 10",51.84580484999999,107.58118360638485
"Республика Бурятия, Улан-Удэ, Ключевская ул., 56",51.8190462,107.6471844
"Республика Бурятия, Улан-Удэ, ул. Жердева, 3А",51.8167241,107.63949005
"Республика Бурятия, Улан-Удэ, Партизанская ул., 25",51.8424457,107.5731598
"Республика Бурятия, Улан-Удэ, ул. Шумяцкого, 10",51.811278849999994,107.67199963602101
"Республика Бурятия, Улан-Удэ, Боевая ул., 12",51.80502045,107.6403175
"Республика Бурятия, Улан-Удэ, пр-т 50 лет Октября, 21Б",,
"Республика Бурятия, Улан-Удэ, ул. Гагарина, 7",51.83503545,107.5986722923148
"Республика Бурятия, Улан-Удэ, 105-й мкр-н, 35",,
"Республика Бурятия, Улан-Удэ, 115-й мкр-н, 8",,
"Республика Бурятия, Улан-Удэ, Ключевская ул., 70А",51.8206907,107.65662637063932
"Республика Бурятия, Улан-Удэ, ул. Жердева, 102",51.810546200000005,107.65934888205521
"Республика Бурятия, Улан-Удэ, Столбовая ул., 50А",51.802893,107.6323353
"Республика Бурятия, Улан-Удэ, ул. Цивилева, 42",51.8408717,107.58919596831694
"Республика Бурятия, Улан-Удэ, ул. Шумяцкого, 12А",51.8126464,107.6693963
"Республика Бурятия, Улан-Удэ, ул. Тулаева, 144",51.818225350000006,107.67970880000001
"Республика Бурятия, Улан-Удэ, Столбовая ул., 60",51.80513415,107.6292753571374
"Республика Бурятия, Улан-Удэ, пр-т Строителей, 5А/1",,
"Республика Бурятия, Улан-Удэ, Ключевская ул., 90Б",51.818048450000006,107.6620374
"Республика Бурятия, Улан-Удэ, ул. Павлова, 64А",51.80604255,107.62911790082103
"Республика Бурятия, Улан-Удэ, ул. Тулаева, 146",51.8216173,107.67959539572308
"Республика Бурятия, Улан-Удэ, ул. Жердева, 112",51.80903575,107.66241200322244
"Республика Бурятия, Улан-Удэ, ул. Антонова, 6",,
"мкр. 102, стр. 3",33.998807,45.950236
"Республика Бурятия, Улан-Удэ, б-р Карла Маркса, 7А",,
"Республика Бурятия, Улан-Удэ, Современная ул., 7",51.77561675,107.58322515446146
"Республика Бурятия, Улан-Удэ, 105-й мкр-н, 29",,
"Республика Бурятия, Улан-Удэ, Ключевская ул., 90Г",51.81811625,107.6610291143832
"Республика Бурятия, Улан-Удэ, мкр-н Восточный, ул. Камова, 19",,
"Республика Бурятия, Улан-Удэ, Норильская ул., 6",51.84912765,107.63001550347214
"Республика Бурятия, Улан-Удэ, Геологическая ул., 28А",51.8109458,107.6053335
"Республика Бурятия, Улан-Удэ, ул. Сахьяновой, 19",51.8053904,107.6237297
"Республика Бурятия, Улан-Удэ, 111-й мкр-н, 34",,
"Республика Бурятия, Улан-Удэ, пр-т Строителей, 62",,
"Республика Бурятия, Улан-Удэ, ул. Лимонова, 10",51.8428102,107.61905644938048
"Республика Бурятия, Улан-Удэ, мкр-н Восточный, ул. Туполева, 23А",,
"Республика Бурятия, Улан-Удэ, пр-т 50 лет Октября, 5",,
"Республика Бурятия, Улан-Удэ, пр-т 50 лет Октября, 5",,
"Республика Бурятия, Улан-Удэ, Профсоюзная ул., 31",51.83217735,107.58907315
"Республика Бурятия, Улан-Удэ, Октябрьская ул., 39",51.8437928,107.6322096
"Республика Бурятия, Улан-Удэ, ул. Гармаева, 15",51.8262562,107.6942957
"Республика Бурятия, Улан-Удэ, Краснофлотская ул., 42",51.8143778,107.67414027685594
"Республика Бурятия, Улан-Удэ, ул. Павлова, 21",51.806595650000006,107.6162094
"Республика Бурятия, Улан-Удэ, ул. Революции 1905 года, 68",51.8438243,107.58108373459393
"Республика Бурятия, Улан-Удэ, ул. Рылеева, 5",51.84095785,107.59896624999999
"мкр. 102, ул. Ринчино, стр. 1",,
"мкр. 148-А, стр. 2",,
"Республика Бурятия, Улан-Удэ, ул. Трубачеева, 144",51.81606035,107.61721937260846
"Республика Бурятия, Улан-Удэ, Солнечная ул., 10",51.812977000000004,107.61518885000001
"Республика Бурятия, Улан-Удэ, Солнечная ул., 28",51.811958950000005,107.61722932149877
"Республика Бурятия, Улан-Удэ, Пионерская ул., 17",51.8352935,107.6006168
"Республика Бурятия, Улан-Удэ, ул. Красной Звезды, 40",51.79286135,107.61916166441176
"Республика Бурятия, Улан-Удэ, ул. Буйко, 21А",51.847453349999995,107.62393815000001
"Республика Бурятия, Улан-Удэ, ул. Рылеева, 3",51.84036035,107.59668054999999
"Республика Бурятия, Улан-Удэ, Ключевская ул., 100",51.8196349,107.66281745
"Республика Бурятия, Улан-Удэ, 111-й мкр-н, 34",,
"Республика Бурятия, Улан-Удэ, ул. Бабушкина, 7",51.8124101,107.5965743
"Республика Бурятия, Улан-Удэ, ул. Сахьяновой, 23В",51.80890275,107.62672797693563
"мкр. 148-А, стр. 2",,
"Республика Бурятия, Улан-Удэ, пр-т 50 лет Октября, 34",,
"Республика Бурятия, Улан-Удэ, Ключевская ул., 64А",51.82060945,107.65053504931537
"Республика Бурятия, Улан-Удэ, Сосновая ул., 16",51.84866625,107.62689234550953
"Республика Бурятия, Улан-Удэ, Тобольская ул., 75",51.8161748,107.66629355
"Республика Бурятия, Улан-Удэ, ул. Борсоева, 27",51.839926,107.57932947719124
"Республика Бурятия, Улан-Удэ, ул. Тулаева, 136",51.8218806,107.67816118659832
"Республика Бурятия, Улан-Удэ, 115-й мкр-н, 3",,
"Республика Бурятия, Улан-Удэ, ул. Невского, 2",,
"Республика Бурятия, Улан-Удэ, пр-т Строителей, 60",,
"Республика Бурятия, муниципальное обра зование Сотниковское, с. Сотниково, Трактовая ул.,4",,
"Республика Бурятия, Улан-Удэ, Комсомольская ул., 16",51.847623049999996,107.6145147
"Республика Бурятия, Улан-Удэ, Ключевская ул., 70А",51.8206907,107.65662637063932
"Республика Бурятия, Улан-Удэ, мкр-н Загорск, Столичная ул., 6",,
"Республика Бурятия, Улан-Удэ, ул. Шумяцкого, 12",51.8126464,107.6693963
"Республика Бурятия, Улан-Удэ, Ключевская ул., 19",51.8225094,107.6313069
"Республика Бурятия, Улан-Удэ, мкр-н 140А, 25",,
"Республика Бурятия, Улан-Удэ, ул. Добролюбова",51.8451393,107.5844722
"Республика Бурятия, Улан-Удэ, 111-й мкр-н, 34",,
"Республика Бурятия, Улан-Удэ, мкр-н Стеклозавод, Хрустальная ул., 25",,
"Республика Бурятия, Улан-Удэ, Гвардейская ул., 2",51.853299899999996,107.6257219
"Республика Бурятия, Улан-Удэ, Краснофлотская ул., 12",51.81468825,107.66767237608607
"Республика Бурятия, Улан-Удэ, ул. Сахьяновой, 19",51.8053904,107.6237297
"Республика Бурятия, Улан-Удэ, Современная ул., 4",51.77557435,107.58190060141033
"Республика Бурятия, Улан-Удэ, 106-й мкр-н, 4к1",,
"Республика Бурятия, Улан-Удэ, ул. Сахьяновой, 19",51.8053904,107.6237297
"Республика Бурятия, Улан-Удэ, 106-й мкр-н, 4к1",,
"Республика Бурятия, Улан-Удэ, Современная ул., 4",51.77557435,107.58190060141033
"Республика Бурятия, Улан-Удэ, ул. Бабушкина, 24",51.7979576,107.6043408
"мкр. 140А, д. 10А",,
"Республика Бурятия, Улан-Удэ, мкр-н Загорск, Столичная ул., 7",,
"Республика Бурятия, Улан-Удэ, ул. Жердева, 98",51.80956655,107.66036455
"Республика Бурятия, Улан-Удэ, Ключевская ул., 56",51.8190462,107.6471844
"Республика Бурятия, Улан-Удэ, ул. Смолина, 54А",51.8395303,107.5776537
"Республика Бурятия, Улан-Удэ, ул. Шумяцкого, 28",51.8126464,107.6693963
"Республика Бурятия, Улан-Удэ, ул. Мокрова, 19",51.8054999,107.644682141045
"Республика Бурятия, Улан-Удэ, 142-й мкр-н, 2",,
"Республика Бурятия, Улан-Удэ, 47-й квартал, Конечная ул., 10к4",51.80780335,107.64076656281819
"Республика Бурятия, Улан-Удэ, Дорожная ул., 1А",51.8401929,107.5204389
"Республика Бурятия, Улан-Удэ, пр-т 50 лет Октября, 17",,
"Республика Бурятия, Улан-Удэ, ул. Жердева, 5",51.81823995,107.628132
"Республика Бурятия, Улан-Удэ, Партизанская ул., 25",51.8424457,107.5731598
"Республика Бурятия, Улан-Удэ, ул. Гагарина, 63",51.8482311,107.5791047
"Республика Бурятия, Улан-Удэ, 47-й квартал, Конечная ул., 3",51.8098981,107.6409229166741
"Республика Бурятия, Улан-Удэ, мкр-н Батарейка, Лесопильная ул., 2/2",,
"Республика Бурятия, Улан-Удэ, мкр-н Загорск, ул. Моцарта, 10",,
"Республика Бурятия, Улан-Удэ, 110-й мкр-н, 12",,
"Республика Бурятия, Улан-Удэ, 104-й квартал, 1/1",51.76311855,107.60984303004338
"Республика Бурятия, Улан-Удэ, 102-й мкр-н, ул. Ринчино, 26",,
"Республика Бурятия, Улан-Удэ, Октябрьская ул., 10А",51.845706,107.61248076423185
"Республика Бурятия, Улан-Удэ, 47-й квартал, Конечная ул., 4",51.8067245,107.63980765552716
"Республика Бурятия, Улан-Удэ, Ключевская ул., 94",51.818658600000006,107.66342204995632
"Республика Бурятия, Улан-Удэ, 105-й мкр-н, 33",,
"Республика Бурятия, Улан-Удэ, Солнечная ул., 37",51.81058285,107.61862245
"Республика Бурятия, Улан-Удэ, мкр-н Сокол, 2",,
"Республика Бурятия, Улан-Удэ, Комсомольская ул., 33",51.844941399999996,107.62605557039767
"Республика Бурятия, Улан-Удэ, Тобольская ул., 41",51.816058600000005,107.65810883334458
"Республика Бурятия, Улан-Удэ, ул. Сахьяновой, 23А",51.80857949999999,107.62577324290065
"Республика Бурятия, Улан-Удэ, ул. Яковлева, 10",51.8637309,107.73480877062316
"Республика Бурятия, Улан-Удэ, ул. Шумяцкого, 20",51.81252125,107.6754788991941
"Республика Бурятия, Улан-Удэ, мкр-н Стеклозавод, Керамическая ул.",,
"Республика Бурятия, Улан-Удэ, ул. Борсоева, 27",51.839926,107.57932947719124
"Республика Бурятия, Улан-Удэ, Комсомольская ул., 6В",51.8451881,107.6250455
"Республика Бурятия, Улан-Удэ, ул. Революции 1905 года, 104А",51.851433650000004,107.56814136620737
"Республика Бурятия, Улан-Удэ, Ростовский пер., 36",51.8276346,107.683762
"Республика Бурятия, Улан-Удэ, Боевая ул., 1",51.8067231,107.63367032364818
"Республика Бурятия, Улан-Удэ, Ермаковская ул., 7",,
"Республика Бурятия, Улан-Удэ, ул. Комарова, 11",51.86182565,107.71764287600473
"Республика Бурятия, Улан-Удэ, мкр-н Восточный, ул. Королёва, 2",,
"Республика Бурятия, Улан-Удэ, Тобольская ул., 41",51.816058600000005,107.65810883334458
"Республика Бурятия, Улан-Удэ, ул. Тулаева, 146",51.8216173,107.67959539572308
"Республика Бурятия, Улан-Удэ, 102-й мкр-н, ул. Ринчино, 21",,
"Республика Бурятия, Улан-Удэ, ул. Революции 1905 года, 102",51.8504775,107.56981730259707
"Республика Бурятия, Улан-Удэ, 47-й квартал, Конечная ул., 6",51.806536300000005,107.63844969036771
"Республика Бурятия, Улан-Удэ, ул. Борсоева, 27",51.839926,107.57932947719124
"Республика Бурятия, Улан-Удэ, Комсомольская ул., 6В",51.8451881,107.6250455
"Республика Бурятия, Улан-Удэ, Ермаковская ул., 7",,
"Республика Бурятия, Улан-Удэ, Ростовский пер., 36",51.8276346,107.683762
"Республика Бурятия, Улан-Удэ, Боевая ул., 1",51.8067231,107.63367032364818
"Республика Бурятия, Улан-Удэ, ул. Комарова, 11",51.86182565,107.71764287600473
"Республика Бурятия, Улан-Удэ, мкр-н Восточный, ул. Королёва, 2",,
"Республика Бурятия, Улан-Удэ, Тобольская ул., 41",51.816058600000005,107.65810883334458
"Республика Бурятия, Улан-Удэ, ул. Чертенкова, 6А",51.84167805,107.59835282076372
"Республика Бурятия, Улан-Удэ, ул. Тулаева, 146",51.8216173,107.67959539572308
"Республика Бурятия, Улан-Удэ, 102-й мкр-н, ул. Ринчино, 21",,
"Республика Бурятия, Улан-Удэ, ул. Революции 1905 года, 102",51.8504775,107.56981730259707
"Республика Бурятия, Улан-Удэ, 47-й квартал, Конечная ул., 6",51.806536300000005,107.63844969036771
"Республика Бурятия, Улан-Удэ, ул. Жердева, 44В",51.810405349999996,107.65514253141957
"Республика Бурятия, Улан-Удэ, ул. Шумяцкого, 20",51.81252125,107.6754788991941
"Республика Бурятия, Улан-Удэ, мкр-н Загорск, ул. Грибоедова, 28",,
"Республика Бурятия, Улан-Удэ, ул. Павлова, 72",51.804854649999996,107.62680115674303
"Республика Бурятия, Улан-Удэ, б-р Карла Маркса, 27",,
"Республика Бурятия, Улан-Удэ, пр-т 50 лет Октября, 20",,
"Республика Бурятия, Улан-Удэ, ул. Мокрова, 30",51.8042637,107.6543924
"Республика Бурятия, Улан-Удэ, ул. Трубачеева, 152А",51.81539845,107.61860015874177
"Республика Бурятия, Улан-Удэ, ул. Добролюбова, 6",51.846895399999994,107.5884924120619
"Республика Бурятия, Улан-Удэ, пр-т Строителей, 28",,
"Республика Бурятия, Улан-Удэ, 112-й мкр-н, 16Б",,
"мкр. Энергетик, д. 60Г",,
"Республика Бурятия, Улан-Удэ, ул. Терешковой, 7А",51.808529,107.606892
"Республика Бурятия, Улан-Удэ, ул. Жердева, 42Бк3",,
"Республика Бурятия, Улан-Удэ, Ключевская ул.",51.8217073,107.6501503
"Республика Бурятия, Улан-Удэ, ул. Шульца, 4",51.8491031,107.57499342931905
"Республика Бурятия, Улан-Удэ, Ключевская ул., 48",51.8204205,107.6492215002351
"Республика Бурятия, Улан-Удэ, Ключевская ул., 60А/2",51.8204341,107.65194115
"Республика Бурятия, Улан-Удэ, 102-й мкр-н, ул. Ринчино, 2",,
"Республика Бурятия, Улан-Удэ, Столбовая ул., 50А",51.802893,107.6323353
"Республика Бурятия, Улан-Удэ, ул. Тулаева, 142",51.8185764,107.67927652522494
"Республика Бурятия, Улан-Удэ, ул. Юного Коммунара, 6",51.848648499999996,107.58257076433549
"Республика Бурятия, Улан-Удэ, Ключевская ул., 36",51.82067655,107.6351731
"Республика Бурятия, Улан-Удэ, 113-й мкр-н, 21",,
"Республика Бурятия, Улан-Удэ, ул. Мокрова, 23",51.80633765,107.64717619999999
"Республика Бурятия, Улан-Удэ, Тобольская ул., 27",51.8135473,107.6564002
"Республика Бурятия, Улан-Удэ, пр-т Строителей, 78",,
"Республика Бурятия, Улан-Удэ, ул. Лебедева, 3А",51.82121735,107.62694181568284
"Республика Бурятия, Улан-Удэ, мкр-н 148А, 1/1",,
"Республика Бурятия, Улан-Удэ, Приречная ул., 8Б",,
"кв-л 115, стр. 17",,
"Республика Бурятия, Улан-Удэ, ул. А.У. Модогоева, 10",,
"Республика Бурятия, Улан-Удэ, посёлок Кумыска, ул. Алтан-Газар, 121",,
"Республика Бурятия, Улан-Удэ, Тобольская ул., 163",51.8186932,107.66904191024193
"Республика Бурятия, Улан-Удэ, Ключевская ул., 144",51.82006375,107.66535947290282
"Республика Бурятия, Улан-Удэ, Тобольская ул., 27",51.8135473,107.6564002
"Республика Бурятия, Улан-Удэ, ул. Лебедева, 3А",51.82121735,107.62694181568284
"Республика Бурятия, Улан-Удэ, пр-т Строителей, 78",,
"Республика Бурятия, Улан-Удэ, мкр-н 148А, 1/1",,
"Республика Бурятия, Улан-Удэ, посёлок Кумыска, ул. Алтан-Газар, 121",,
"Республика Бурятия, Улан-Удэ, Приречная ул., 8Б",,
"кв-л 115, стр. 17",,
"Республика Бурятия, Улан-Удэ, ул. А.У. Модогоева, 10",,
"Республика Бурятия, Улан-Удэ, ул. Сахьяновой, 19",51.8053904,107.6237297
"Республика Бурятия, Улан-Удэ, Тобольская ул., 163",51.8186932,107.66904191024193
"Республика Бурятия, Улан-Удэ, Ключевская ул., 144",51.82006375,107.66535947290282
"Республика Бурятия, Улан-Удэ, Ключевская ул., 8",51.82106535,107.63014985595228
"Республика Бурятия, Улан-Удэ, ул. Клыпина, 12",51.8462964,107.58046325000001
"Республика Бурятия, Улан-Удэ, Ключевская ул., 19",51.8225094,107.6313069
"Республика Бурятия, Улан-Удэ, ул. Жердева, 118",51.8084324,107.66309745000001
"мкр. 140Б, 5 очередь, 2 этап",,
"Республика Бурятия, Улан-Удэ, ул. Шумяцкого, 12А",51.8126464,107.6693963
"Республика Бурятия, Улан-Удэ, Московская ул., 4",51.83428645,107.59569805788594
"Республика Бурятия, Улан-Удэ, ул. А.У. Модогоева, 4",,
"Республика Бурятия, Улан-Удэ, мкр-н Сокол, 1",,
"Республика Бурятия, Улан-Удэ, Столбовая ул., 54А",51.804540900000006,107.63462865955694
"Республика Бурятия, Улан-Удэ, 102-й мкр-н, ул. Ринчино, 9",,
"Республика Бурятия, Улан-Удэ, 115-й мкр-н, 9",,
"Республика Бурятия, Улан-Удэ, 112-й мкр-н, 28",,
"Республика Бурятия, Улан-Удэ, мкр-н 148А, 1/5",,
"Республика Бурятия, Улан-Удэ, мкр-н Сокол, 9",,
"Республика Бурятия, Улан-Удэ, посёлок Кумыска, клубный жилой комплекс Европа, 11",,
"Республика Бурятия, Улан-Удэ, мкр-н 140Б, 1",,
"Республика Бурятия, Улан-Удэ, ул. Буйко, 25А",51.84668015,107.62542423298223
"Республика Бурятия, Улан-Удэ, ул. Гагарина, 20",51.839874300000005,107.59356439999999
"Республика Бурятия, Улан-Удэ, пр-т Строителей, 70",,
"Республика Бурятия, Улан-Удэ, мкр-н Стеклозавод, Заовражная ул., 1А",,
"Республика Бурятия, Улан-Удэ, ул. Жердева, 25А",51.807499,107.660047
"Республика Бурятия, Улан-Удэ, пр-т Строителей, 78А",,
"Республика Бурятия, Улан-Удэ, 110-й мкр-н, 12",,
"Республика Бурятия, Улан-Удэ, ул. Павлова, 59А",51.8064002,107.6254592
"Республика Бурятия, Улан-Удэ, мкр-н Зелёный, квартал Новый Зелёный, Изумрудная ул., 20Б",,
"Республика Бурятия, Улан-Удэ, ул. Борсоева, 29",51.839103,107.57910534999999
"Республика Бурятия, Улан-Удэ, 111-й мкр-н, 5/1",,
"Республика Бурятия, Улан-Удэ, ул. Гагарина, 46",51.8485685,107.57940112454803
"Республика Бурятия, Улан-Удэ, пр-т Строителей, 38",,
"Республика Бурятия, Улан-Удэ, Ключевская ул., 90В",51.8217073,107.6501503
"Республика Бурятия, Улан-Удэ, ул. Бабушкина, 26",51.7979576,107.6043408
"Республика Бурятия, Улан-Удэ, Краснофлотская ул., 40",51.81380325,107.67373853406525
"Республика Бурятия, Улан-Удэ, ул. Гагарина, 20",51.839874300000005,107.59356439999999
"Республика Бурятия, Улан-Удэ, Ермаковская ул., 22",,
"Республика Бурятия, Улан-Удэ, ул. Пржевальского, 2",51.84318965,107.5925864003838
"Республика Бурятия, Улан-Удэ, 102-й мкр-н, ул. Ринчино, 9",,
"Республика Бурятия, Улан-Удэ, 115-й мкр-н, 9",,
"Республика Бурятия, Улан-Удэ, 112-й мкр-н, 28",,
"Республика Бурятия, Улан-Удэ, мкр-н 148А, 1/5",,
"Республика Бурятия, Улан-Удэ, мкр-н Сокол, 9",,
"Республика Бурятия, Улан-Удэ, посёлок Кумыска, клубный жилой комплекс Европа, 11",,
"Республика Бурятия, Улан-Удэ, мкр-н 140Б, 1",,
"Республика Бурятия, Улан-Удэ, ул. Буйко, 25А",51.84668015,107.62542423298223
"Республика Бурятия, Улан-Удэ, ул. Гагарина, 20",51.839874300000005,107.59356439999999
"Республика Бурятия, Улан-Удэ, пр-т Строителей, 70",,
"Республика Бурятия, Улан-Удэ, мкр-н Стеклозавод, Заовражная ул., 1А",,
"Республика Бурятия, Улан-Удэ, ул. Жердева, 25А",51.807499,107.660047
"Республика Бурятия, Улан-Удэ, пр-т Строителей, 78А",,
"Республика Бурятия, Улан-Удэ, 110-й мкр-н, 12",,
"Республика Бурятия, Улан-Удэ, ул. Павлова, 59А",51.8064002,107.6254592
"Республика Бурятия, Улан-Удэ, мкр-н Зелёный, квартал Новый Зелёный, Изумрудная ул., 20Б",,
"Республика Бурятия, Улан-Удэ, ул. Борсоева, 29",51.839103,107.57910534999999
"Республика Бурятия, Улан-Удэ, 111-й мкр-н, 5/1",,
"Республика Бурятия, Улан-Удэ, ул. Гагарина, 46",51.8485685,107.57940112454803
"Республика Бурятия, Улан-Удэ, пр-т Строителей, 38",,
"Республика Бурятия, Улан-Удэ, Ключевская ул., 90В",51.8217073,107.6501503
"Республика Бурятия, Улан-Удэ, ул. Бабушкина, 26",51.7979576,107.6043408
"Республика Бурятия, Улан-Удэ, Краснофлотская ул., 40",51.81380325,107.67373853406525
"Республика Бурятия, Улан-Удэ, ул. Гагарина, 20",51.839874300000005,107.59356439999999
"Республика Бурятия, Улан-Удэ, Ермаковская ул., 22",,
"Республика Бурятия, Улан-Удэ, ул. Пржевальского, 2",51.84318965,107.5925864003838
"Республика Бурятия, Улан-Удэ, 102-й мкр-н, ул. Ринчино, 9",,
"Республика Бурятия, Улан-Удэ, 115-й мкр-н, 9",,
"Республика Бурятия, Улан-Удэ, 112-й мкр-н, 28",,
"Республика Бурятия, Улан-Удэ, мкр-н 148А, 1/5",,
"Республика Бурятия, Улан-Удэ, мкр-н Сокол, 9",,
"Республика Бурятия, Улан-Удэ, посёлок Кумыска, клубный жилой комплекс Европа, 11",,
"Республика Бурятия, Улан-Удэ, мкр-н 140Б, 1",,
"Республика Бурятия, Улан-Удэ, ул. Буйко, 25А",51.84668015,107.62542423298223
"Республика Бурятия, Улан-Удэ, ул. Гагарина, 20",51.839874300000005,107.59356439999999
"Республика Бурятия, Улан-Удэ, пр-т Строителей, 70",,
"Республика Бурятия, Улан-Удэ, мкр-н Стеклозавод, Заовражная ул., 1А",,
"Республика Бурятия, Улан-Удэ, ул. Жердева, 25А",51.8044459,107.6594032
"Республика Бурятия, Улан-Удэ, пр-т Строителей, 78А",,
"Республика Бурятия, Улан-Удэ, 110-й мкр-н, 12",,
"Республика Бурятия, Улан-Удэ, ул. Павлова, 59А",51.806339,107.6207344
"Республика Бурятия, Улан-Удэ, мкр-н Зелёный, квартал Новый Зелёный, Изумрудная ул., 20Б",,
"Республика Бурятия, Улан-Удэ, ул. Жердева, 25А",51.8044459,107.6594032
"Республика Бурятия, Улан-Удэ, пр-т Строителей, 78А",,
"Республика Бурятия, Улан-Удэ, ул. Бабушкина, 26",51.800328,107.6049824
"Республика Бурятия, Улан-Удэ, ул. Борсоева, 29",51.839103,107.57910534999999
"Республика Бурятия, Улан-Удэ, 111-й мкр-н, 5/1",,
"Республика Бурятия, Улан-Удэ, ул. Гагарина, 46",51.8485685,107.57940112454803
"Республика Бурятия, Улан-Удэ, пр-т Строителей, 38",,
"Республика Бурятия, Улан-Удэ, Ключевская ул., 90В",51.8215801,107.6302315
"Республика Бурятия, Улан-Удэ, Краснофлотская ул., 40",51.81380325,107.67373853406525
"Республика Бурятия, Улан-Удэ, ул. Гагарина, 20",51.839874300000005,107.59356439999999
"Республика Бурятия, Улан-Удэ, Ермаковская ул., 22",,
"Республика Бурятия, Улан-Удэ, ул. Пржевальского, 2",51.84318965,107.5925864003838
"Республика Бурятия, Улан-Удэ, мкр-н 148В, 8/2",,
"Республика Бурятия, Улан-Удэ, Тобольская ул., 15А",51.8135473,107.6564002
"Республика Бурятия, Улан-Удэ, ул. Мокрова, 28А",51.804455000000004,107.65202450473791
"Республика Бурятия, Улан-Удэ, ул. Буйко, 26",51.8473729,107.6235546
"Республика Бурятия, Улан-Удэ, 113-й мкр-н, 4А",,
"Республика Бурятия, Улан-Удэ, 102-й мкр-н, ул. Ринчино, 4",,
"Республика Бурятия, Улан-Удэ, ул. Тулаева, 134",51.8211181,107.6775494
"Республика Бурятия, Улан-Удэ, мкр-н Загорск, Заиграевская ул., 5",,
"Республика Бурятия, Улан-Удэ, ул. Добролюбова, 2А",51.84797125,107.59154427227637
"Республика Бурятия, Улан-Удэ, ул. Гагарина, 49",51.8450173,107.58335399999999
"Республика Бурятия, Улан-Удэ, мкр-н Загорск, ул. Балдынова, 3",,
"Республика Бурятия, Улан-Удэ, ул. Бабушкина, 17",51.81070015,107.59717950000001
"Республика Бурятия, Улан-Удэ, мкр-н 140А, 12",,
"Республика Бурятия, Улан-Удэ, пр-т 50 лет Октября, 24",,
"Республика Бурятия, Улан-Удэ, Краснофлотская ул., 34",51.8148965,107.67328876167534
"Республика Бурятия, Улан-Удэ, 104-й квартал, 5",51.77336075,107.5885033
"Республика Бурятия, Улан-Удэ, ул. Пушкина, 33",51.84694815,107.58423966407533
"Республика Бурятия, Улан-Удэ, 112-й мкр-н, 24",,
"Республика Бурятия, Улан-Удэ, 110-й мкр-н, 5",,
"Республика Бурятия, Улан-Удэ, 102-й мкр-н",,
"Республика Бурятия, Улан-Удэ, ул. Хахалова, 3",51.83285445,107.59662384924475
"Республика Бурятия, Улан-Удэ, ул. Мокрова, 28А",51.804455000000004,107.65202450473791
"Республика Бурятия, Улан-Удэ, пр-т Строителей, 5А",,
"Республика Бурятия, Улан-Удэ, Дорожная ул., 40",51.8401929,107.5204389
"Республика Бурятия, Улан-Удэ, Комсомольская ул., 6В",51.8451881,107.6250455
"Республика Бурятия, Улан-Удэ, ул. Тулаева, 136",51.8218806,107.67816118659832
"Республика Бурятия, Улан-Удэ, ул. Бабушкина, 24",51.800328,107.6049824
"Республика Бурятия, Улан-Удэ, Ключевская ул., 28",51.819652,107.63441159999999
"мкр. 148-А, стр. 3",,
"Республика Бурятия, Улан-Удэ, ул. Москалёва, 5",,
"Республика Бурятия, Улан-Удэ, 113-й мкр-н, 1",,
"Республика Бурятия, Улан-Удэ, Ключевская ул., 106",51.81942185,107.66530620621734
"Республика Бурятия, Улан-Удэ, ул. Строителей, 39",51.8417415,107.51559701923654
"Республика Бурятия, Улан-Удэ, ул. Смолина, 77",51.837674,107.5772993
"Республика Бурятия, Улан-Удэ, ул. Бабушкина, 24",51.800328,107.6049824
"Республика Бурятия, Улан-Удэ, Ключевская ул., 28",51.819652,107.63441159999999
"мкр. 148-А, стр. 3",,
"Республика Бурятия, Улан-Удэ, ул. Москалёва, 5",,
"Республика Бурятия, Улан-Удэ, 113-й мкр-н, 1",,
"Республика Бурятия, Улан-Удэ, Ключевская ул., 106",51.81942185,107.66530620621734
"Республика Бурятия, Улан-Удэ, ул. Строителей, 39",51.8417415,107.51559701923654
"Республика Бурятия, Улан-Удэ, ул. Жердева, 102",51.80996595,107.6605926715263
"Республика Бурятия, Улан-Удэ, ул. Смолина, 77",51.837674,107.5772993
"Республика Бурятия, Улан-Удэ, мкр-н Аэропорт, 25",,
"Республика Бурятия, Улан-Удэ, Медицинская ул., 27А",51.7996318,107.60968685631188
"ул. Ключевская , д. 60 Б корп. 3",,
"Республика Бурятия, Улан-Удэ, 105-й мкр-н, 46",,
"Республика Бурятия, Улан-Удэ, Комсомольская ул., 4",51.846377649999994,107.60952655
"Республика Бурятия, Улан-Удэ, ул. Буйко, 2",51.848806749999994,107.61400085
"Республика Бурятия, Улан-Удэ, ул. Шумяцкого, 27",51.8126464,107.6693963
"Республика Бурятия, Улан-Удэ, 47-й квартал, Конечная ул., 10к2",51.8081526,107.63917450810627
"Республика Бурятия, Улан-Удэ, Солнечная ул., 18",51.8116347,107.6191915
"Республика Бурятия, Улан-Удэ, ул. Жуковского, 20",51.84847755,107.5936902353749
"Республика Бурятия, Улан-Удэ, мкр-н 148А, 2/3",,
"Республика Бурятия, Улан-Удэ, ул. Жердева, 98",51.80956655,107.66036455
"Республика Бурятия, Улан-Удэ, мкр-н Восточный, ул. Туполева, 17",,
"Республика Бурятия, Улан-Удэ, 47-й квартал, Конечная ул., 10к2",51.8081526,107.63917450810627
"ул. Цивилева, д. 34",51.839993,107.5894149
"Республика Бурятия, Улан-Удэ, ул. Бабушкина, 21",51.8099032,107.59826657694705
"Республика Бурятия, Улан-Удэ, ул. Жердева, 33",51.8187783,107.63613647693813
"Республика Бурятия, Улан-Удэ, 148-й мкр-н, 10/2",,
"Республика Бурятия, Улан-Удэ, ул. Гастелло, 11",51.8639077,107.7272289
"Республика Бурятия, Улан-Удэ, пр-т 50 лет Октября, 38",,
"Республика Бурятия, Улан-Удэ, ул. Кирова, 23",51.8266061,107.5846395
"Республика Бурятия, Улан-Удэ, Норильская ул., 22",51.84762085,107.63318572277034
"Республика Бурятия, Улан-Удэ, ул. Жердева, 44",51.80909935,107.65625665
"Республика Бурятия, Улан-Удэ, Партизанская ул., 28",51.8424457,107.5731598
"Республика Бурятия, Улан-Удэ, ул. Революции 1905 года, 32А",51.8377818,107.59119582699404
"мкр. 148-А, стр. 1",,
"Республика Бурятия, Улан-Удэ, Ключевская ул., 60Б/4",51.8215801,107.6302315
"Республика Бурятия, Улан-Удэ, 102-й мкр-н, ул. Ринчино, 4",,
"Республика Бурятия, Улан-Удэ, мкр-н Загорск, ул. Родины, 7",,
"мкр. 148-А, стр. 2",,
"Республика Бурятия, Улан-Удэ, мкр-н Заречный, ул. Мерецкова, 25",,
"Республика Бурятия, Улан-Удэ, Боевая ул., 12",51.80502045,107.6403175
"Республика Бурятия, муниципальное образование Сотниковское, с. Сотниково, Лесная ул., 7",,
"Республика Бурятия, Улан-Удэ, ул. Гагарина, 30",51.8454737,107.58447761574442
"Республика Бурятия, Улан-Удэ, ул. Чертенкова, 6А",51.84167805,107.59835282076372
"кв-л 115, стр. 16",,
"Республика Бурятия, Улан-Удэ, улица Чертенкова, 53А",51.8614408,107.5644907
"Республика Бурятия, Улан-Удэ, пр-т Строителей, 68",,
"Республика Бурятия, Улан-Удэ, мкр-н Восточный, ул. Чкалова, 6",,
"Республика Бурятия, Улан-Удэ, 102-й мкр-н, ул. Ринчино, 1",,
"Республика Бурятия, Улан-Удэ, Коллективная ул., 1 3",51.8524635,107.5654789
"Республика Бурятия, Улан-Удэ, Ключевская ул., 60Б/4",51.8215801,107.6302315
"Республика Бурятия, Улан-Удэ, мкр-н Загорск, ул. Родины, 7",,
"Республика Бурятия, муниципальное образование Сотниковское, с. Сотниково, Лесная ул., 7",,
"Республика Бурятия, Улан-Удэ, 102-й мкр-н, ул. Ринчино, 4",,
"Республика Бурятия, Улан-Удэ, ул. Чертенкова, 6А",51.84167805,107.59835282076372
"мкр. 148-А, стр. 2",,
"Республика Бурятия, Улан-Удэ, мкр-н Заречный, ул. Мерецкова, 25",,
"Республика Бурятия, Улан-Удэ, Боевая ул., 12",51.80502045,107.6403175
"Республика Бурятия, Улан-Удэ, ул. Гагарина, 30",51.8454737,107.58447761574442
"кв-л 115, стр. 16",,
"Республика Бурятия, Улан-Удэ, улица Чертенкова, 53А",51.8614408,107.5644907
"Республика Бурятия, Улан-Удэ, пр-т Строителей, 68",,
"Республика Бурятия, Улан-Удэ, мкр-н Восточный, ул. Туполева, 4",,
"Республика Бурятия, Улан-Удэ, мкр-н Восточный, ул. Чкалова, 6",,
"Республика Бурятия, Улан-Удэ, Коллективная ул., 13",51.854860099999996,107.57090143344382
"Республика Бурятия, Улан-Удэ, 102-й мкр-н, ул. Ринчино, 1",,
"Республика Бурятия, Улан-Удэ, Октябрьская ул., 11",51.84720445,107.61451344972522
"Республика Бурятия, Улан-Удэ, ул. Революции 1905 года, 14",51.8348899,107.59396204999999
"Республика Бурятия, Улан-Удэ, мкр-н Зелёный, 1А",,
"Республика Бурятия, Улан-Удэ, 111-й мкр-н, 7",,
"кв-л 115/ул. Москалева, ЖК «Удачный»",,
"Республика Бурятия, Улан-Удэ, ул. Хоца Намсараева, 8",51.841930149999996,107.5957263
"Республика Бурятия, Улан-Удэ, ул. Смолина, 81",51.8395827,107.5768
"Республика Бурятия, Улан-Удэ, ул. Мокрова, 32",51.80425765,107.6563702198618
"Республика Бурятия, Улан-Удэ, ул. Антонова, 16",,
"Республика Бурятия, Улан-Удэ, ул. Юннатов, 2",,
"Республика Бурятия, Улан-Удэ, Ключевская ул., 38",51.820109349999996,107.63608706954986
"Республика Бурятия, Улан-Удэ, мкр-н 148А, 1/5",,
"Республика Бурятия, Улан-Удэ, 105-й мкр-н, 31",,
"Республика Бурятия, Улан-Удэ, мкр-н Аэропорт",,
"Республика Бурятия, Улан-Удэ, Боевая ул., 26",51.803891449999995,107.64008541182545
"Республика Бурятия, Улан-Удэ, Комсомольская ул., 4",51.846377649999994,107.60952655
"Республика Бурятия, Улан-Удэ, 102-й мкр-н",,
"Республика Бурятия, Улан-Удэ, ул. Жердева, 136",51.811595100000005,107.66636854591515
"Республика Бурятия, Улан-Удэ, б-р Карла Маркса, 27",,
"Республика Бурятия, Улан-Удэ, ул. Смолина, 63",51.834279,107.57819616324846
"мкр. 102, стр. 3",33.998807,45.950236
"Республика Бурятия, Улан-Удэ, ул. Юного Коммунара, 10",51.849292250000005,107.58353029999999
"Республика Бурятия, Улан-Удэ, ул. Тулаева, 138",51.821197,107.67861447440112
"Республика Бурятия, Улан-Удэ, ул. Хоца Намсараева, 4",51.84138745,107.59448727757317
"Республика Бурятия, Улан-Удэ, 102-й мкр-н, ул. Ринчино, 15",,
"Республика Бурятия, Улан-Удэ, 110-й мкр-н, 14",,
"Республика Бурятия, Улан-Удэ, ул. А.У. Модогоева, 10",,
"Республика Бурятия, Улан-Удэ, Ключевская ул., 60Б/4",51.8215801,107.6302315
"Республика Бурятия, Улан-Удэ, ул. Добролюбова, 6А",51.846469299999995,107.58873981075908
"Республика Бурятия, Улан-Удэ, пр-т Строителей, 52",,
"Республика Бурятия, Улан-Удэ, пр-т 50 лет Октября, 22",,
"Республика Бурятия, Улан-Удэ, Ключевская ул., 58",51.81825925,107.64763212646234
"Республика Бурятия, Улан-Удэ, мкр-н Аэропорт",,
"Республика Бурятия, Улан-Удэ, б-р Карла Маркса, 27",,
"Республика Бурятия, Улан-Удэ, Комсомольская ул., 4",51.846377649999994,107.60952655
"Республика Бурятия, Улан-Удэ, ул. Смолина, 63",51.834279,107.57819616324846
"Республика Бурятия, Улан-Удэ, 102-й мкр-н",,
"Республика Бурятия, Улан-Удэ, ул. Жердева, 136",51.811595100000005,107.66636854591515
"Республика Бурятия, Улан-Удэ, ул. Тулаева, 138",51.821197,107.67861447440112
"мкр. 102, стр. 3",33.998807,45.950236
"Республика Бурятия, Улан-Удэ, 102-й мкр-н, ул. Ринчино, 15",,
"Республика Бурятия, Улан-Удэ, ул. Юного Коммунара, 10",51.849292250000005,107.58353029999999
"Республика Бурятия, Улан-Удэ, ул. Хоца Намсараева, 4",51.84138745,107.59448727757317
"Республика Бурятия, Улан-Удэ, Ключевская ул., 60Б/4",51.8215801,107.6302315
"Республика Бурятия, Улан-Удэ, 110-й мкр-н, 14",,
"Республика Бурятия, Улан-Удэ, ул. Добролюбова, 6А",51.846469299999995,107.58873981075908
"Республика Бурятия, Улан-Удэ, ул. А.У. Модогоева, 10",,
"Республика Бурятия, Улан-Удэ, Ключевская ул., 58",51.81825925,107.64763212646234
"Республика Бурятия, Улан-Удэ, пр-т Строителей, 52",,
"Республика Бурятия, Улан-Удэ, пр-т 50 лет Октября, 22",,
"Республика Бурятия, Улан-Удэ, 47-й квартал, Конечная ул., 4",51.8067245,107.63980765552716
"Республика Бурятия, Улан-Удэ, Октябрьская ул., 33",51.8434544,107.62966696528744
"Республика Бурятия, Улан-Удэ, мкр-н Заречный, ул. Толстихина, 2А",,
"мкр. 148-А, стр. 1",,
"Республика Бурятия, Улан-Удэ, ул. Кошевого, 24",51.84600895,107.70389857864876
"Республика Бурятия, Улан-Удэ, 104-й квартал, 2",51.772985399999996,107.5891299450116
"Республика Бурятия, Улан-Удэ, ул. Борсоева, 27",51.839926,107.57932947719124
"мкр. 148-А, стр. 1",,
"ул. Москалёва, стр. 12",,
"Республика Бурятия, Улан-Удэ, 111-й мкр-н, 3",,
"мкр. 140Б, д. 2, д. 3",,
"Республика Бурятия, Улан-Удэ, ул. имени Д.Ц. Дашиева, 7",,
"Республика Бурятия, Улан-Удэ, Октябрьская ул., 11",51.84720445,107.61451344972522
"мкр. 140Б, 6 очередь, 1 дом",,
"Республика Бурятия, Улан-Удэ, Медицинская ул., 27А",51.7996318,107.60968685631188
"Республика Бурятия, Улан-Удэ, Ключевская ул., 90",51.818995400000006,107.66103340142917
"Республика Бурятия, Улан-Удэ, Сосновая ул., 14А",51.84727995,107.62830955997525
"Республика Бурятия, Улан-Удэ, мкр-н Зелёный, 5",,
"Республика Бурятия, Улан-Удэ, Ключевская ул., 64",51.8213214,107.65158469377995
"Республика Бурятия, Улан-Удэ, 115-й мкр-н, 8",,
"Республика Бурятия, Улан-Удэ, ул. Клыпина, 21",51.848138750000004,107.57660832639634
"Республика Бурятия, Улан-Удэ, ул. Пушкина, 35А",51.850212400000004,107.57885114999999
"Республика Бурятия, Улан-Удэ, Комсомольская ул., 40",51.84509785,107.62434943203095
"мкр. 102, стр. 1",33.998807,45.950236
"Республика Бурятия, Улан-Удэ,Октябрьский район, 115-й мкр-н, 3",,
"Республика Бурятия, Улан-Удэ, мкр-н 140А, 25",,
"Республика Бурятия, Улан-Удэ, Ермаковская ул., 39",,
"Республика Бурятия, Улан-Удэ, ул. Строителей, 40",51.8434609,107.5155894
"Республика Бурятия, Улан-Удэ, ул. Сахьяновой, 19",51.8053904,107.6237297
"ул. Модогоева, д. 8",51.8376396,107.5797992
"Республика Бурятия, Улан-Удэ, Медицинская ул., 27А",51.7996318,107.60968685631188
"Республика Бурятия, Улан-Удэ, Ключевская ул., 90",51.818995400000006,107.66103340142917
"мкр. 140Б, 6 очередь, 1 дом",,
"Республика Бурятия, Улан-Удэ, мкр-н Вагжанова, Дивизионная ул. 1-й участок, 1",,
"Республика Бурятия, Улан-Удэ, Ключевская ул., 64",51.8213214,107.65158469377995
"Республика Бурятия, Улан-Удэ, 115-й мкр-н, 8",,
"Республика Бурятия, Улан-Удэ, Сосновая ул., 14А",51.84727995,107.62830955997525
"Республика Бурятия, Улан-Удэ, мкр-н Зелёный, 5",,
"Республика Бурятия, Улан-Удэ, ул. Клыпина, 21",51.848138750000004,107.57660832639634
"Республика Бурятия, Улан-Удэ, Комсомольская ул., 40",51.84509785,107.62434943203095
"Республика Бурятия, Улан-Удэ, ул. Пушкина, 35А",51.850212400000004,107.57885114999999
"Республика Бурятия, Улан-Удэ, мкр-н 140А, 25",,
"мкр. 102, стр. 1",33.998807,45.950236
"Республика Бурятия, Улан-Удэ, ул. Строителей, 40",51.8434609,107.5155894
"Республика Бурятия, Улан-Удэ,Октябрьский район, 115-й мкр-н, 3",,
"Республика Бурятия, Улан-Удэ, 111-й мкр-н, 15",,
"Республика Бурятия, Улан-Удэ, Ермаковская ул., 39",,
"Республика Бурятия, Улан-Удэ, ул. Сахьяновой, 19",51.8053904,107.6237297
"ул. Модогоева, д. 8",51.8376396,107.5797992
"Республика Бурятия, Улан-Удэ, мкр-н Стеклозавод, Хрустальная ул., 10",,
"Республика Бурятия, Улан-Удэ, ул. Павлова, 48А",51.80610715,107.62274245
"Республика Бурятия, Улан-Удэ, Коммунистическая ул., 44",51.8320426,107.5876257
"Республика Бурятия, Улан-Удэ, Тобольская ул., 47",51.815206700000005,107.65953770513295
"Республика Бурятия, Улан-Удэ, 105-й мкр-н, 44",,
"Республика Бурятия, Улан-Удэ, ул. Терешковой, 40",51.8095098,107.61449569999999
"Республика Бурятия, Улан-Удэ, Октябрьская ул., 13",51.8472486,107.61584551103957
"Республика Бурятия, Улан-Удэ, Октябрьская ул., 39",51.8437928,107.6322096
"Республика Бурятия, Улан-Удэ, Тагильская ул., 4",51.8615564,107.5783985
"Республика Бурятия, Улан-Удэ, Тобольская ул., 41",51.8162559,107.6586679134798
"Республика Бурятия, Улан-Удэ, Геологическая ул., 24А",51.81049825,107.60533445
"Республика Бурятия, Улан-Удэ, Октябрьская ул., 9",51.847185,107.61341745
"Республика Бурятия, Улан-Удэ, ул. Пушкина, 23",51.842157549999996,107.59226773748176
"Республика Бурятия, Улан-Удэ, пр-т Строителей, 26",,
"Республика Бурятия, Улан-Удэ, Ключевская ул., 12",51.82005075,107.6299981
"Республика Бурятия, Улан-Удэ, ул. Сенчихина, 2",51.849120400000004,107.57318115891836
"Республика Бурятия, Улан-Удэ, 106-й мкр-н, 2к3",,
"Республика Бурятия, Улан-Удэ, б-р Карла Маркса, 22",,
"Республика Бурятия, муниципальное образование Сотниковское, с. Сотниково, Трактовая ул., 6",,
"мкр. 148-А, стр. 2",,
"Республика Бурятия, Улан-Удэ, 142-й мкр-н, 60Г",,
"Республика Бурятия, Улан-Удэ, мкр-н Зелёный, 1",,
"Республика Бурятия, Улан-Удэ, Комсомольская ул., 16",51.847623049999996,107.6145147
"Республика Бурятия, Улан-Удэ, мкр-н Плодово-ягодная опытная станция, ул. Третьякова, 25",,
"ул. Боевая/Конечная, жилые дома",,
"Республика Бурятия, Улан-Удэ, Кабанская ул., 16",51.8466707,107.5140309
"мкр. 148-А, стр. 2",,
"Республика Бурятия, Улан-Удэ, б-р Карла Маркса, 19",,
"Республика Бурятия, Улан-Удэ, мкр-н Сокол, 3",,
"ул. Дашиева, д. 7",51.7698029,107.6068633
"Республика Бурятия, Улан-Удэ, Октябрьская ул., 13",51.8472486,107.61584551103957
"Республика Бурятия, Улан-Удэ, ул. Терешковой, 40",51.8095098,107.61449569999999
"Республика Бурятия, Улан-Удэ, Октябрьская ул., 39",51.8437928,107.6322096
"Республика Бурятия, Улан-Удэ, Тагильская ул., 4",51.8615564,107.5783985
"Республика Бурятия, Улан-Удэ, Тобольская ул., 41",51.816058600000005,107.65810883334458
"Республика Бурятия, Улан-Удэ, Геологическая ул., 24А",51.81049825,107.60533445
"Республика Бурятия, Улан-Удэ, Октябрьская ул., 9",51.847185,107.61341745
"Республика Бурятия, Улан-Удэ, ул. Пушкина, 23",51.842157549999996,107.59226773748176
"Республика Бурятия, Улан-Удэ, Ключевская ул., 12",51.82005075,107.6299981
"Республика Бурятия, Улан-Удэ, пр-т Строителей, 26",,
"Республика Бурятия, Улан-Удэ, ул. Сенчихина, 2",51.849120400000004,107.57318115891836
"Республика Бурятия, Улан-Удэ, 106-й мкр-н, 2к3",,
"Республика Бурятия, Улан-Удэ, б-р Карла Маркса, 22",,
"мкр. 148-А, стр. 2",,
"Республика Бурятия, муниципальное образование Сотниковское, с. Сотниково, Трактовая ул., 6",,
"Республика Бурятия, Улан-Удэ, 142-й мкр-н, 60Г",,
"Республика Бурятия, Улан-Удэ, мкр-н Зелёный, 1",,
"Республика Бурятия, Улан-Удэ, Комсомольская ул., 16",51.847623049999996,107.6145147
"Республика Бурятия, Улан-Удэ, мкр-н Плодово-ягодная опытная станция, ул. Третьякова, 25",,
"ул. Боевая/Конечная, жилые дома",,
"Республика Бурятия, Улан-Удэ, Кабанская ул., 16",51.8466707,107.5140309
"мкр. 148-А, стр. 2",,
"Республика Бурятия, Улан-Удэ, б-р Карла Маркса, 19",,
"ул. Дашиева, д. 7",51.7698029,107.6068633
"Республика Бурятия, Улан-Удэ, мкр-н Сокол, 3",,
"Республика Бурятия, Улан-Удэ, ул. Жердева, 132",51.8110592,107.66419347926175
"Республика Бурятия, Улан-Удэ, ул. Хоца Намсараева, 2",51.8411162,107.59388804726814
"Республика Бурятия, Улан-Удэ, Столбовая ул., 62",51.8049586,107.6304824
"Республика Бурятия, Улан-Удэ, 105-й мкр-н, 46",,
"Республика Бурятия, Улан-Удэ, 112-й мкр-н, 24",,
"Республика Бурятия, Улан-Удэ, мкр-н 140А, 25",,
"Республика Бурятия, Улан-Удэ, Октябрьская ул., 13",51.8472486,107.61584551103957
"Республика Бурятия, Улан-Удэ, Ключевская ул., 76А",51.8205369,107.6585191
"Республика Бурятия, Улан-Удэ, ул. Невского, 6",,
"ул. Бабушкина, стр. 3",59.8756064,30.4448925
"Республика Бурятия, Улан-Удэ, пр-т 50 лет Октября, 30",,
"Республика Бурятия, Улан-Удэ, пр-т Строителей, 64",,
"Республика Бурятия, Улан-Удэ, ул. Мокрова, 27",51.8053661,107.64806571238067
"Республика Бурятия, Улан-Удэ, Боевая ул., 3",51.80647475,107.6331352963605
"Республика Бурятия, Улан-Удэ, Ключевская ул., 52",51.8199511,107.6484110992989
"Республика Бурятия, Улан-Удэ, Ермаковская ул., 24",,
"Республика Бурятия, Улан-Удэ, 113-й мкр-н, 1",,
"Республика Бурятия, Улан-Удэ, мкр-н Исток, Полевая ул., 2",,
"Республика Бурятия, Улан-Удэ, Октябрьская ул., 14",51.8467285,107.61372185
"мкр. 128, д. 2",,
"Республика Бурятия, Улан-Удэ, Ростовский пер., 36А",51.8276346,107.683762
"Республика Бурятия, Улан-Удэ, мкр-н Энергетик, 30",,
"мкр. 104-й , д. 5",,
"Республика Бурятия, Улан-Удэ, Забайкальская ул., 8Ак1",51.7786593,107.5721105
"ул. Дашиева, д. 6",51.7698029,107.6068633
"Республика Бурятия, Улан-Удэ, Столбовая ул., 62",51.8049586,107.6304824
"Республика Бурятия, Улан-Удэ, ул. Жердева, 132",51.8111222,107.664181
"Республика Бурятия, Улан-Удэ, Ключевская ул., 76А",51.819687200000004,107.65844340394648
"Республика Бурятия, Улан-Удэ, ул. Хоца Намсараева, 2",51.8411162,107.59388804726814
"Республика Бурятия, Улан-Удэ, 105-й мкр-н, 46",,
"Республика Бурятия, Улан-Удэ, Тобольская ул., 57",51.815821,107.6607574
"Республика Бурятия, Улан-Удэ, Октябрьская ул., 13",51.8472486,107.61584551103957
"Республика Бурятия, Улан-Удэ, ул. Невского, 6",,
"Республика Бурятия, Улан-Удэ, Боевая ул., 3",51.80647475,107.6331352963605
"ул. Бабушкина, стр. 3",56.3608262,61.9866203
"Республика Бурятия, Улан-Удэ, пр-т 50 лет Октября, 30",,
"Республика Бурятия, Улан-Удэ, 113-й мкр-н, 1",,
"Республика Бурятия, Улан-Удэ, пр-т Строителей, 64",,
"Республика Бурятия, Улан-Удэ, ул. Мокрова, 27",51.8053661,107.64806571238067
"Республика Бурятия, Улан-Удэ, Ключевская ул., 52",51.8199511,107.6484110992989
"Республика Бурятия, Улан-Удэ, Ермаковская ул., 24",,
"Республика Бурятия, Улан-Удэ, мкр-н Исток, Полевая ул., 2",,
"Республика Бурятия, Улан-Удэ, Октябрьская ул., 14",51.8467285,107.61372185
"мкр. 128, д. 2",,
"Республика Бурятия, Улан-Удэ, Ключевская ул., 144",51.82006375,107.66535947290282
"Республика Бурятия, Улан-Удэ, Ростовский пер., 36А",51.8276346,107.683762
"Республика Бурятия, Улан-Удэ, мкр-н Энергетик, 30",,
"мкр. 104-й , д. 5",,
"Республика Бурятия, Улан-Удэ, мкр-н Восточный, ул. Микояна, 7",,
"Республика Бурятия, Улан-Удэ, Забайкальская ул., 8Ак1",51.7786593,107.5721105
"мкр. 106-й, стр. 2, корп. 4",,
"ул. Дашиева, д. 6",51.7698029,107.6068633
"Республика Бурятия, Улан-Удэ, мкр-н Заречный, ул. Лощенкова, 19А/1",,
"Республика Бурятия, Улан-Удэ, Комсомольская ул., 1В",51.8451881,107.6250455
"Республика Бурятия, Улан-Удэ, Кабанская ул., 20",51.847466600000004,107.51217787740681
"Республика Бурятия, Улан-Удэ, Солнечная ул., 20",51.81194995,107.6196037
"Республика Бурятия, Улан-Удэ, Путейская ул., 6",51.8454761,107.58161180354337
"Республика Бурятия, Улан-Удэ, Октябрьская ул., 6",51.845439549999995,107.6110065199959
"Республика Бурятия, Улан-Удэ, ул. Цивилева, 27",51.838087650000006,107.59167758971655
"Республика Бурятия, Улан-Удэ, Красноармейская ул., 14",51.83611795,107.59612245994649
"мкр. 148-А, стр. 1",,
"мкр. 140Б, 5 очередь, 2 этап",,
"Республика Бурятия, Улан-Удэ, Ключевская ул., 13",51.8218678,107.62876558573242
"Республика Бурятия, Улан-Удэ, ул. Мокрова, 40",51.8033541,107.65798808166777
"Республика Бурятия, Улан-Удэ, ул. Чертенкова, 137",51.8614408,107.5644907
"Республика Бурятия, Улан-Удэ, Краснофлотская ул., 42",51.8143778,107.67414027685594
"Республика Бурятия, Улан-Удэ, Краснофлотская ул., 38",51.81364275,107.67262856344
"Республика Бурятия, Улан-Удэ, 105-й мкр-н, 31",,
"Республика Бурятия, Улан-Удэ, ул. Пугачёва, 29",51.8246118,107.6741356
"Республика Бурятия, Улан-Удэ, ул. Павлова, 19",51.806586949999996,107.61500235
"Республика Бурятия, Улан-Удэ, ул. Цивилева, 12",51.835579249999995,107.59581915007591
"Республика Бурятия, Улан-Удэ, ул. Жердева, 42Бк2",51.8044459,107.6594032
"Республика Бурятия, Улан-Удэ, 105-й мкр-н",,
"Республика Бурятия, Улан-Удэ, ул. Кирова, 23",51.8263723,107.5772509
"Республика Бурятия, Улан-Удэ, ул. Тулаева, 142",51.8185764,107.67927652522494
"Республика Бурятия, Улан-Удэ, Ростовский пер., 36А",51.8276346,107.683762
"Республика Бурятия, Улан-Удэ, мкр-н Энергетик, 30",,
"Республика Бурятия, Улан-Удэ, мкр-н Восточный, ул. Микояна, 7",,
"мкр. 104-й , д. 5",,
"мкр. 106-й, стр. 2, корп. 4",,
"Республика Бурятия, Улан-Удэ, Забайкальская ул., 8Ак1",51.7786593,107.5721105
"ул. Дашиева, д. 6",51.7686302,107.6027447
"Республика Бурятия, Улан-Удэ, Кабанская ул., 20",51.8471613,107.5125628
"Республика Бурятия, Улан-Удэ, мкр-н Заречный, ул. Лощенкова, 19А/1",,
"Республика Бурятия, Улан-Удэ, Путейская ул., 6",51.8454761,107.58161180354337
"Республика Бурятия, Улан-Удэ, Октябрьская ул., 6",51.845439549999995,107.6110065199959
"Республика Бурятия, Улан-Удэ, Солнечная ул., 20",51.81194995,107.6196037
"Республика Бурятия, Улан-Удэ, Комсомольская ул., 1В",51.8451881,107.6250455
"Республика Бурятия, Улан-Удэ, Красноармейская ул., 14",51.83611795,107.59612245994649
"Республика Бурятия, Улан-Удэ, ул. Цивилева, 27",51.838087650000006,107.59167758971655
"мкр. 148-А, стр. 1",,
"мкр. 140Б, 5 очередь, 2 этап",,
"Республика Бурятия, Улан-Удэ, ул. Мокрова, 40",51.8033541,107.65798808166777
"Республика Бурятия, Улан-Удэ, Ключевская ул., 13",51.8218678,107.62876558573242
"Республика Бурятия, Улан-Удэ, ул. Чертенкова, 137",51.8631257,107.5623183
"Республика Бурятия, Улан-Удэ, Краснофлотская ул., 42",51.8143778,107.67414027685594
"Республика Бурятия, Улан-Удэ, Краснофлотская ул., 38",51.81364275,107.67262856344
"Республика Бурятия, Улан-Удэ, ул. Павлова, 19",51.806586949999996,107.61500235
"Республика Бурятия, Улан-Удэ, 105-й мкр-н, 31",,
"Республика Бурятия, Улан-Удэ, ул. Кирова, 23",51.8264784,107.5796756
"Республика Бурятия, Улан-Удэ, ул. Пугачёва, 29",51.8246118,107.6741356
"Республика Бурятия, Улан-Удэ, ул. Жердева, 42Бк2",51.8065057,107.6546313
"Республика Бурятия, Улан-Удэ, ул. Цивилева, 12",51.835579249999995,107.59581915007591
"Республика Бурятия, Улан-Удэ, ул. Тулаева, 142",51.8185764,107.67927652522494
"Республика Бурятия, Улан-Удэ, мкр-н Кирзавод, Кирпичная ул., 1",,
"Республика Бурятия, Улан-Удэ, 105-й мкр-н",,
"Республика Бурятия, Улан-Удэ, Ключевская ул., 4В",51.8217809,107.6413895
"Республика Бурятия, Улан-Удэ, ул. имени Д.Ц. Дашиева, 4",,
"ул. Ключевская, Блок 3",56.8341906,60.5364295
"Республика Бурятия, Улан-Удэ, ул. Чертенкова, 49",51.863596900000005,107.5580704742923
"Республика Бурятия, Улан-Удэ, мкр-н Зелёный, 1",,
"Республика Бурятия, Улан-Удэ, Ермаковская ул., 22",,
"Республика Бурятия, Улан-Удэ, ул. Борсоева, 69",51.8416759,107.57510816223882
"Республика Бурятия, Улан-Удэ, мкр-н Аэропорт, 28",,
"Республика Бурятия, Улан-Удэ, мкр-н Аэропорт, 29",,
"Республика Бурятия, Улан-Удэ, ул. Пушкина, 5",51.83585455,107.6006232231477
"Республика Бурятия, Улан-Удэ, 112-й мкр-н, 23",,
"Республика Бурятия, Улан-Удэ, Тобольская ул., 67",51.8159203,107.6642684
"Республика Бурятия, Улан-Удэ, ул. Революции 1905 года, 96",51.8484273,107.57400508466743
"Республика Бурятия, Улан-Удэ, ул. Жердева, 42Бк1",,
"Республика Бурятия, Улан-Удэ, 47-й квартал, Конечная ул., 10к2",51.8081526,107.63917450810627
"Республика Бурятия, Улан-Удэ, Ключевская ул., 6Д",51.8217809,107.6413895
"Республика Бурятия, Улан-Удэ, ул. Каландаришвили, 31",51.82896585,107.58587244863509
"Республика Бурятия, Улан-Удэ, 105-й мкр-н, 31",,
"Республика Бурятия, Улан-Удэ, мкр-н Кирзавод, Кирпичная ул., 1",,
"Республика Бурятия, Улан-Удэ, ул. Жердева, 42Бк2",51.8065057,107.6546313
"Республика Бурятия, Улан-Удэ, ул. Пугачёва, 29",51.8246118,107.6741356
"Республика Бурятия, Улан-Удэ, ул. Цивилева, 12",51.835579249999995,107.59581915007591
"Республика Бурятия, Улан-Удэ, 105-й мкр-н",,
"Республика Бурятия, Улан-Удэ, Ключевская ул., 4В",51.8217809,107.6413895
"Республика Бурятия, Улан-Удэ, ул. имени Д.Ц. Дашиева, 4",,
"ул. Ключевская, Блок 3",56.8341906,60.5364295
"Республика Бурятия, Улан-Удэ, ул. Чертенкова, 49",51.863596900000005,107.5580704742923
"Республика Бурятия, Улан-Удэ, Ермаковская ул., 22",,
"Республика Бурятия, Улан-Удэ, мкр-н Аэропорт, 28",,
"Республика Бурятия, Улан-Удэ, мкр-н Зелёный, 1",,
"Республика Бурятия, Улан-Удэ, 112-й мкр-н, 23",,
"Республика Бурятия, Улан-Удэ, ул. Борсоева, 69",51.8416759,107.57510816223882
"Республика Бурятия, Улан-Удэ, мкр-н Аэропорт, 29",,
"Республика Бурятия, Улан-Удэ, ул. Пушкина, 5",51.83585455,107.6006232231477
"Республика Бурятия, Улан-Удэ, ул. Жердева, 42Бк1",,
"Республика Бурятия, Улан-Удэ, Тобольская ул., 67",51.8159203,107.6642684
"Республика Бурятия, Улан-Удэ, ул. Революции 1905 года, 96",51.8484273,107.57400508466743
"Республика Бурятия, Улан-Удэ, Ключевская ул., 6Д",51.8217809,107.6413895
"Республика Бурятия, Улан-Удэ, 47-й квартал, Конечная ул., 10к2",51.8081526,107.63917450810627
"ул. Дашиева, д. 6",51.7686302,107.6027447
"Республика Бурятия, Улан-Удэ, ул. Каландаришвили, 31",51.82896585,107.58587244863509
"Республика Бурятия, Улан-Удэ, ул. Трубачеева, 14",51.81336985,107.60153422769727
"Республика Бурятия, Улан-Удэ, Пристанская ул., 10",51.84209225,107.57356261504745
"Республика Бурятия, Улан-Удэ, мкр-н Аэропорт, 23",,
"мкр. 102, стр. 3",33.998807,45.950236
"Республика Бурятия, Улан-Удэ, ул. Жердева, 25",51.81654245,107.63251425
"мкр. 148-А, стр. 1",,
"Республика Бурятия, Улан-Удэ, мкр-н Загорск, Заиграевская ул., 21",,
"Республика Бурятия, Улан-Удэ, Солнечная ул., 12",51.81335695,107.61377350000001
"Республика Бурятия, Улан-Удэ, ул. Пушкина, 35",51.849668550000004,107.57975865260599
"Республика Бурятия, Улан-Удэ, Ключевская ул., 14",51.81955005,107.62951591982213
"ул. Москалёва, стр. 12",,
"Республика Бурятия, Улан-Удэ, ул. Павлова, 48А",51.80610715,107.62274245
"Республика Бурятия, Улан-Удэ, ул. Хахалова, 3",51.83285445,107.59662384924475
"Республика Бурятия, Улан-Удэ, ул. Гастелло, 11",51.8639077,107.7272289
"Республика Бурятия, Улан-Удэ, ул. Жердева, 142",51.809871799999996,107.66927574200469
"Республика Бурятия, Улан-Удэ, ул. Жердева, 100",51.809867,107.65931525
"Республика Бурятия, Улан-Удэ, ул. Пушкина, 23",51.842157549999996,107.59226773748176
"Республика Бурятия, Улан-Удэ, 105-й мкр-н, 44",,
"Республика Бурятия, Улан-Удэ, Коммунистическая ул., 4/2",51.822606300000004,107.5883285
"Республика Бурятия, Улан-Удэ, ул. Хоца Намсараева, 2",51.8411162,107.59388804726814
"Республика Бурятия, Улан-Удэ, мкр-н Энергетик, 30",,
"Республика Бурятия, Улан-Удэ, ул. Терешковой, 2",51.8092781,107.6005536
"Республика Бурятия, Улан-Удэ, ул. Мокрова, 19",51.8054999,107.644682141045
"ул. Ключевская, д. 90Г, корп. 1",,
"Республика Бурятия, Улан-Удэ, ул. Цивилева, 12",51.835579249999995,107.59581915007591
"ул. Бабушкина, стр. 2",59.5721416,60.6137539
"Республика Бурятия, Улан-Удэ, Октябрьская ул., 1Б",51.845704850000004,107.60911499999999
"Республика Бурятия, Улан-Удэ, б-р Карла Маркса, 29А",,
"Республика Бурятия, Улан-Удэ, Октябрьская ул., 7А",51.8427976,107.604315
"Республика Бурятия, Улан-Удэ, б-р Карла Маркса, 15А",,
"Республика Бурятия, Улан-Удэ, ул. А.У. Модогоева, 8",,
"мкр. 128, д. 4",,
"Республика Бурятия, Улан-Удэ, Ермаковская ул., 24",,
"Республика Бурятия, Улан-Удэ, ул. Клыпина",51.8478664,107.5775141
"Республика Бурятия, Улан-Удэ, 47-й квартал, Конечная ул., 7к1",51.80699345,107.63788228300838
"Республика Бурятия, Улан-Удэ, мкр-н Вагжанова, Дивизионная ул. 1-й участок, 1",,
"Республика Бурятия, Улан-Удэ, ул. Трубачеева, 14",51.81336985,107.60153422769727
"Республика Бурятия, Улан-Удэ, 113-й мкр-н, 18",,
"Республика Бурятия, Улан-Удэ, ул. 502-й километр, 114",51.83048345,107.64958630566184
"Республика Бурятия, Улан-Удэ, мкр-н Энергетик, 40",,
"Республика Бурятия, Улан-Удэ, ул. Кирова, 23",51.8264784,107.5796756
"Республика Бурятия, Улан-Удэ, Ключевская ул., 24",51.818238449999996,107.63418884739819
"Республика Бурятия, Улан-Удэ, 47-й квартал, Конечная ул., 10к1",51.808023,107.63998820675582
"Республика Бурятия, Улан-Удэ, мкр-н Восточный, ул. Чкалова, 15",,
"ул. Ключевская , д. 60 Б, корп. 2",,
"Республика Бурятия, Улан-Удэ, 115-й мкр-н, 3",,
"ул. Ключевская, д. 90Г, корп. 2",,
"Республика Бурятия, Улан-Удэ, мкр-н Заречный, ул. Мерецкова, 54",,
"Республика Бурятия, Улан-Удэ, Бийская ул., 90",51.8134876,107.608586
"мкр. 102, стр. 2",33.998807,45.950236
"Республика Бурятия, Улан-Удэ, ул. Чайковского, 3А",51.8558276,107.7089982
"Республика Бурятия, Улан-Удэ, Тобольская ул., 59",51.81550935,107.66450569819743
"Республика Бурятия, Улан-Удэ, 105-й мкр-н, 44",,
"ул. Бабушкина, стр. 71",,
"мкр. 128, д. 2",,
"Республика Бурятия, Улан-Удэ, пр-т 50 лет Октября, 2/1",,
"мкр. 148-А, стр. 2",,
"Республика Бурятия, Улан-Удэ, ул. Павлова, 59А",51.806339,107.6207344
"Республика Бурятия, Улан-Удэ, мкр-н Загорск, ул. Герцена",,
"пр-т Строителей, стр. 5А",,
"Республика Бурятия, Улан-Удэ, Комсомольская ул., 25",51.8469883,107.6228546
"мкр. 102, стр. 2",33.998807,45.950236
"105-й мкр., стр. 1",,
"Республика Бурятия, Улан-Удэ, ул. Бабушкина, 27",51.80439085,107.60413932318343
"Республика Бурятия, Улан-Удэ, Норильская ул., 26",51.84798145,107.63170863031358
"Республика Бурятия, Улан-Удэ, ул. Добролюбова, 37А",51.84736,107.58798749977382
"Республика Бурятия, Улан-Удэ, 113-й мкр-н, 24",,
"Республика Бурятия, Улан-Удэ, ул. Бабушкина, 37А",51.815271249999995,107.59546657311506
"Республика Бурятия, муниципальное образование Сотниковское, с. Сотниково, Трактовая ул., 8",,
"Республика Бурятия, Улан-Удэ, мкр-н Вагжанова, Дивизионная ул. 1-й участок, 27",,
"Республика Бурятия, Улан-Удэ, ул. Борсоева, 69",51.8416759,107.57510816223882
"Республика Бурятия, Улан-Удэ, мкр-н Загорск, ул. Родины, 5/3",,
"Республика Бурятия,  с. Сотниково, Береговая ул., 3",,
"Республика Бурятия, Улан-Удэ, ул. Пушкина, 23",51.842157549999996,107.59226773748176
"Республика Бурятия, Улан-Удэ, ул. Строителей, 39",51.8417415,107.51559701923654
"Республика Бурятия, Улан-Удэ, Ключевская ул., 13",51.8218678,107.62876558573242
"Республика Бурятия, Улан-Удэ, мкр-н Восточный, ул. Камова, 9",,
"Республика Бурятия, Улан-Удэ, Кабанская ул., 2",51.84290125,107.5196561
"Республика Бурятия, Улан-Удэ, ул. Чайковского, 16",51.85906145,107.71758295000001
"Республика Бурятия, Улан-Удэ, Тобольская ул., 41",51.816058600000005,107.65810883334458
"Республика Бурятия, Улан-Удэ, ул. Жердева, 42Бк1",,
"Республика Бурятия, Улан-Удэ, ул. Красной Звезды, 40",51.79286135,107.61916166441176
"Республика Бурятия, Улан-Удэ, Ключевская ул., 14",51.81955005,107.62951591982213
"Республика Бурятия, Улан-Удэ, 110-й мкр-н, 6",,
"ул. Цивилева, д. 34",51.839993,107.5894149
"Республика Бурятия, Улан-Удэ, б-р Карла Маркса, 29",,
"Республика Бурятия, Улан-Удэ, Ермаковская ул., 24",,
"мкр. 102, стр. 2",33.998807,45.950236
"Республика Бурятия, Улан-Удэ, Приречная ул., 8",,
"Республика Бурятия, Улан-Удэ, ул. Смолина, 67к1",51.8358003,107.57740319085977
"Республика Бурятия, Улан-Удэ, ул. Бабушкина, 178",51.8001946,107.60391073074203
"Республика Бурятия, Улан-Удэ, мкр-н Сокол, 6",,
"Республика Бурятия, Улан-Удэ, пр-т Строителей, 10",,
"Республика Бурятия, Улан-Удэ, 113-й мкр-н, 23",,
"Республика Бурятия, Улан-Удэ, пр-т Строителей, 58Ак8",,
"Республика Бурятия, Улан-Удэ, мкр-н Энергетик, 41",,
"Республика Бурятия, Улан-Удэ, мкр-н Стеклозавод, ул. Батожабая, 6",,
"Республика Бурятия, Улан-Удэ, 115-й мкр-н, 9",,
"Республика Бурятия, Улан-Удэ, 47-й квартал, Конечная ул., 10к2",51.8081526,107.63917450810627
"Республика Бурятия, Улан-Удэ, мкр-н Зелёный, 1",,
"Республика Бурятия, Улан-Удэ, мкр-н Южный, Псковский пер., 32",,
"Республика Бурятия, Улан-Удэ, ул. Чертенкова, 49",51.863596900000005,107.5580704742923
"Республика Бурятия, Улан-Удэ, Краснофлотская ул., 16",51.815285849999995,107.67084989999998
"Республика Бурятия, Улан-Удэ, Солнечная ул., 2А",51.8128674,107.6081035
"ул. Конечная, д. 10, корп. 2",,
"мкр. 105, жилые дома",,
"Республика Бурятия, Улан-Удэ, Ключевская ул., 54В",51.82067965,107.64650118448108
"Республика Бурятия, Улан-Удэ, 111-й мкр-н, 18",,
"Республика Бурятия, Улан-Удэ, 105-й мкр-н, 37",,
"Республика Бурятия, Улан-Удэ, мкр-н Кирзавод, Кирпичная ул., 1",,
"Республика Бурятия, Улан-Удэ, Тобольская ул., 163",51.8186932,107.66904191024193
"Республика Бурятия, Улан-Удэ, Ключевская ул., 14",51.81955005,107.62951591982213
"Республика Бурятия, Улан-Удэ, Тобольская ул., 9",51.81771695,107.64877529353258
"ул. Дашиева, д. 6",51.7698029,107.6068633
"Республика Бурятия, Улан-Удэ, ул. Лимонова, 8А",51.8416262,107.620618
"Республика Бурятия, Улан-Удэ, ул. Маяковского, 1Б",51.844152699999995,107.60411288041601
"Республика Бурятия, Улан-Удэ, ул. Жердева, 132",51.8111222,107.664181
"Республика Бурятия, городской округ Улан-Удэ,Октябрьский район",51.796009850000004,107.67874216650301
"ул. Конечная, д. 10, корп. 2",,
"Республика Бурятия, Улан-Удэ, ул. Гагарина, 60",51.85052520000001,107.57633908225385
"Республика Бурятия, Улан-Удэ, мкр-н Заречный, ул. Лощенкова, 19А/1",,
"Республика Бурятия, Улан-Удэ, ул. Клыпина, 18",51.8477853,107.57879691223408
"Республика Бурятия, Улан-Удэ, 115-й мкр-н, 9",,
"Республика Бурятия, Улан-Удэ, ул. Гольдсобеля, 4",,
"мкр. 106-й, стр. 2, корп. 4",,
"Республика Бурятия, Улан-Удэ, ул. Жердева, 102",51.80996595,107.6605926715263
"кв-л 115, стр. 17",,
"Республика Бурятия, Улан-Удэ, 47-й квартал, Конечная ул., 10к2",51.8081526,107.63917450810627
"Республика Бурятия, Улан-Удэ, Ключевская ул., 6Д",51.8215801,107.6302315
"Республика Бурятия, Улан-Удэ, мкр-н Восточный, ул. Туполева, 16",,
"Республика Бурятия, Улан-Удэ, 105-й мкр-н, 20",,
"Республика Бурятия, Улан-Удэ, б-р Карла Маркса, 11",,
"Республика Бурятия, Улан-Удэ, ул. Жердева, 132",51.8111222,107.664181
"Республика Бурятия, Улан-Удэ, ул. 502-й километр, 114",51.83048345,107.64958630566184
"Республика Бурятия, Улан-Удэ, ул. Тулаева, 130",51.820877800000005,107.67597460000002
"Республика Бурятия, Улан-Удэ, 142-й мкр-н, 60В",,
"Республика Бурятия, Улан-Удэ, мкр-н Загорск, Столичная ул., 4",,
"Республика Бурятия, Улан-Удэ, Тобольская ул., 57",51.815821,107.6607574
"Республика Бурятия, Улан-Удэ, Октябрьская ул., 13",51.8472486,107.61584551103957
"Республика Бурятия, муниципальное образование Сотниковское, с. Сотниково, Лесная ул., 48",,
"Республика Бурятия, Улан-Удэ, мкр-н Энергетик, 37",,
"мкр. 102, стр. 2",33.998807,45.950236
"кв-л 140А, стр. 13",,
"Республика Бурятия, Улан-Удэ, мкр-н Плодово-ягодная опытная станция, ул. Третьякова, 25А",,
"Республика Бурятия, Улан-Удэ, ул. Буйко, 12",51.8487917,107.61703419897478
"Республика Бурятия, Улан-Удэ, 111-й мкр-н, 34",,
"Республика Бурятия, Улан-Удэ, ул. Куйбышева, 24",51.8249637,107.5850736
"Республика Бурятия, Улан-Удэ, 142-й мкр-н, 60Б",,
"Республика Бурятия, Улан-Удэ, мкр-н Загорск, ул. Моцарта, 1",,
"Республика Бурятия, Улан-Удэ, Комсомольская ул., 21",51.84779615,107.621307
"Республика Бурятия, Улан-Удэ, Ключевская ул., 4В",51.8215801,107.6302315
"Республика Бурятия, Улан-Удэ, Столбовая ул., 62",51.8049586,107.6304824
"Республика Бурятия, Улан-Удэ, пр-т 50 лет Октября, 24",,
"Республика Бурятия, Улан-Удэ, ул. Жердева, 94",51.80848325,107.66086489158072
"Республика Бурятия, Улан-Удэ, Ключевская ул., 60Б/3",51.8215801,107.6302315
"Республика Бурятия, Улан-Удэ, 102-й мкр-н, ул. Ринчино, 28",,
"Республика Бурятия, Улан-Удэ, ул. Трубачеева, 152А",51.81539845,107.61860015874177
"Республика Бурятия, Улан-Удэ, Геологическая ул., 28",51.8104939,107.60737155062563
"Республика Бурятия, Улан-Удэ, мкр-н Исток, Природная ул., 12",,
"Республика Бурятия, муниципальное образование Нижнеиволгинское, с. Нижняя Иволга, Школьная ул., 12",,
"Республика Бурятия, Улан-Удэ, ул. Буйко, 23А",51.84706415,107.6246846
"ул. Бабушкина, стр. 3",59.5721416,60.6137539
"Республика Бурятия, Улан-Удэ, 102-й мкр-н, ул. Ринчино, 4",,
"Республика Бурятия, Улан-Удэ, 113-й мкр-н, 37",,
"Республика Бурятия, Улан-Удэ, ул. Строителей, 34",51.8415416,107.5182039
"Республика Бурятия, Улан-Удэ, ул. Чертенкова, 133",51.8631257,107.5623183
"Республика Бурятия, Улан-Удэ, мкр-н 140Б, 4",,
"Республика Бурятия, Улан-Удэ, Сосновая ул., 16",51.84866625,107.62689234550953
"Республика Бурятия, Улан-Удэ, 104-й квартал, 5",51.77336075,107.5885033
"Республика Бурятия, Улан-Удэ, 47-й квартал, Конечная ул., 10к2",51.8081526,107.63917450810627
"Республика Бурятия, Улан-Удэ, Современная ул., 6",51.775978949999995,107.58267315282009
"Республика Бурятия, Улан-Удэ, 105-й мкр-н, 44",,
"Республика Бурятия, Улан-Удэ, Солнечная ул., 31",51.810680399999995,107.6170018
"мкр. 102, стр. 1",33.998807,45.950236
"Республика Бурятия, Улан-Удэ, ул. Жердева, 46",51.808312099999995,107.65727810000001
"Республика Бурятия, Улан-Удэ, Современная ул., 6",51.775978949999995,107.58267315282009
"Республика Бурятия, Улан-Удэ, Октябрьская ул., 1Б",51.845704850000004,107.60911499999999
"Республика Бурятия, Улан-Удэ, Тобольская ул., 47",51.815206700000005,107.65953770513295
"Республика Бурятия, Улан-Удэ, мкр-н Энергетик, 40",,
"Республика Бурятия, Улан-Удэ, Комсомольская ул., 33",51.844941399999996,107.62605557039767
"мкр. 106-й, стр. 2",,
"Республика Бурятия, Улан-Удэ, мкр-н Заречный, ул. Мерецкова, 21",,
"ул. Бабушкина, стр. 2",59.5721416,60.6137539
"Республика Бурятия, Улан-Удэ, Октябрьская ул., 12",51.8460286,107.61417677491906
"Республика Бурятия, Улан-Удэ, ул. Терешковой, 34",51.810288650000004,107.61300857635135
"Республика Бурятия, Улан-Удэ, ул. Терешковой, 36А",51.8101044,107.61391040050577
"Республика Бурятия, г.о. Улан-Удэ,Октябрьский район, Горхонская ул., 8",,
"Республика Бурятия, Улан-Удэ, ул. Жердева",51.8065057,107.6546313
"Республика Бурятия, Улан-Удэ, 111-й мкр-н, 34",,
"Республика Бурятия, с. Сотниково, Трактовая ул., 22",,
"ул. Бабушкина, стр. 1",59.5721416,60.6137539
"Республика Бурятия, Улан-Удэ, 47-й квартал, Конечная ул., 8",51.808116299999995,107.63840458580873
"Республика Бурятия, Улан-Удэ, ул. Клыпина, 12",51.8462964,107.58046325000001
"Республика Бурятия, Улан-Удэ, ул. Жердева, 42Бк1",,
"Республика Бурятия, Улан-Удэ, Партизанская ул., 29А",51.8424457,107.5731598
"Республика Бурятия, Улан-Удэ, мкр-н 140А, 17",,
"Республика Бурятия, Улан-Удэ, Пионерская ул., 17",51.8352935,107.6006168
"Республика Бурятия, Улан-Удэ, Тобольская ул., 163",51.8186932,107.66904191024193
"кв-л 115, стр. 16",,
"мкр. 102, стр. 2",33.998807,45.950236
"Республика Бурятия, Улан-Удэ, Тобольская ул., 67",51.8159203,107.6642684
"Республика Бурятия, Улан-Удэ, ул. Куйбышева, 24",51.8249637,107.5850736
"Республика Бурятия, Улан-Удэ, посёлок Верхняя Берёзовка, 1Е",,
"Республика Бурятия, Улан-Удэ, пр-т Строителей, 78А",,
"Республика Бурятия, Улан-Удэ, ул. Жердева, 92",51.8079551,107.66022797625743
"Республика Бурятия, Улан-Удэ, ул. Толстого, 14",51.824512850000005,107.59977115000001
"Республика Бурятия, Улан-Удэ, ул. Тулаева, 142",51.8185764,107.67927652522494
"ул. Боевая/Конечная, блоки 18-22",,
"Республика Бурятия, Улан-Удэ, ул. Нестерова, 2",51.8590712,107.7117738
"Республика Бурятия, Улан-Удэ, Ключевская ул., 90Б",51.818048450000006,107.6620374
"Республика Бурятия, Улан-Удэ, ул. Пушкина, 23",51.842157549999996,107.59226773748176
"мкр. 140Б, блок-секция 4-5",,
"Республика Бурятия, Улан-Удэ, ул. А.У. Модогоева, 3А",,
"Республика Бурятия, Улан-Удэ, ул. Сахьяновой, 15",51.806833499999996,107.62262875
"Республика Бурятия, Улан-Удэ, 111-й мкр-н, 9",,
"Республика Бурятия, Улан-Удэ, Лысогорская ул., 87А",51.8510731,107.5955768
"Республика Бурятия, Улан-Удэ, Ключевская ул., 24",51.818238449999996,107.63418884739819
"Республика Бурятия, Улан-Удэ, посёлок Верхняя Берёзовка, 1Е",,
"Республика Бурятия, Улан-Удэ, пр-т Строителей, 78А",,
"Республика Бурятия, Улан-Удэ, ул. Жердева, 92",51.8079551,107.66022797625743
"Республика Бурятия, Улан-Удэ, ул. Толстого, 14",51.824512850000005,107.59977115000001
"Республика Бурятия, Улан-Удэ, ул. Тулаева, 142",51.8185764,107.67927652522494
"ул. Боевая/Конечная, блоки 18-22",,
"Республика Бурятия, Улан-Удэ, ул. Нестерова, 2",51.8590712,107.7117738
"Республика Бурятия, Улан-Удэ, Ключевская ул., 90Б",51.818048450000006,107.6620374
"Республика Бурятия, Улан-Удэ, ул. Пушкина, 23",51.842157549999996,107.59226773748176
"мкр. 140Б, блок-секция 4-5",,
"Республика Бурятия, Улан-Удэ, ул. А.У. Модогоева, 3А",,
"Республика Бурятия, Улан-Удэ, ул. Сахьяновой, 15",51.806833499999996,107.62262875
"Республика Бурятия, Улан-Удэ, 111-й мкр-н, 9",,
"Республика Бурятия, Улан-Удэ, Лысогорская ул., 87А",51.8510731,107.5955768
"Республика Бурятия, Улан-Удэ, Ключевская ул., 24",51.818238449999996,107.63418884739819
"Республика Бурятия, Улан-Удэ, 113-й мкр-н, 20",,
"Республика Бурятия, Улан-Удэ, Соборная ул., 5",,
"мкр-н 140Б, д. 5.2",,
"Республика Бурятия, Улан-Удэ, мкр-н Сокол, 9",,
"Республика Бурятия, Улан-Удэ, мкр-н Сокол, 9",,
"Республика Бурятия, Улан-Удэ, ул. Бабушкина, 17",51.81070015,107.59717950000001
"Республика Бурятия, Улан-Удэ, 104-й квартал",51.8160891,107.662928
"Республика Бурятия, Улан-Удэ, ул. Жердева, 100",51.809867,107.65931525
"Республика Бурятия, Улан-Удэ, Краснофлотская ул., 28",51.81703695,107.66875967061958
"Республика Бурятия, Улан-Удэ, ул. Павлова, 59А",51.8064002,107.6254592
"Республика Бурятия, Улан-Удэ, Производственная ул., 3А",51.8174088,107.5905985
"мкр. 128, д. 2",,
"Республика Бурятия, Улан-Удэ, Подкаменская ул., 40",51.8157773,107.5950538
"ул. Цивилева, д. 34",51.8341107,107.5972742
"Республика Бурятия, Улан-Удэ, мкр-н Заречный, ул. Мерецкова, 20",,
"Республика Бурятия, Улан-Удэ, мкр-н Энергетик, 35",,
"Республика Бурятия, Улан-Удэ, Тобольская ул., 41",51.816058600000005,107.65810883334458
"Республика Бурятия, Улан-Удэ, ул. Рылеева, 7",51.8410568,107.5999563
"кв-л 115, стр. 17",,
"Республика Бурятия, Улан-Удэ, Октябрьская ул., 30",51.84538255,107.62096715000001
"Республика Бурятия, Улан-Удэ, Норильская ул., 10",51.848613549999996,107.63012115032997
"Республика Бурятия, Улан-Удэ, ул. Клыпина, 12",51.8462964,107.58046325000001
"мкр. 106-й, стр. 3",,
"Республика Бурятия, Улан-Удэ, Современная ул., 1",51.774752899999996,107.58312895586798
"Республика Бурятия, Улан-Удэ, ул. Чаадаева, 3",51.8465807,107.62805105000001
"Республика Бурятия, Улан-Удэ, мкр-н 140А, 13",,
"мкр. 102, ул. Ринчино, стр. 1",,
"Республика Бурятия, Улан-Удэ, Тобольская ул., 63А",51.8135473,107.6564002
"ул. Бабушкина, стр. 2",59.8756064,30.4448925
"Республика Бурятия, Улан-Удэ, Ключевская ул., 88",51.82035905,107.66314587708305
"Республика Бурятия, Улан-Удэ, мкр-н Загорск, Заиграевская ул., 20А",,
"Республика Бурятия, Улан-Удэ, ул. имени Д.Ц. Дашиева, 6",,
"Республика Бурятия, Улан-Удэ, ул. Терешковой, 11",51.808736249999995,107.61349287598055
"Республика Бурятия, Улан-Удэ, пр-т Победы, 11",,
"Республика Бурятия, Улан-Удэ, 104-й квартал, 1/1",51.76311855,107.60984303004338
"Республика Бурятия, Улан-Удэ, Тобольская ул., 41",51.8162559,107.6586679134798
"Республика Бурятия, Улан-Удэ, ул. Гастелло, 4",51.8626888,107.7285135
"Республика Бурятия, Улан-Удэ, Ключевская ул., 14",51.81955005,107.62951591982213
"Республика Бурятия, Улан-Удэ, ул. Добролюбова, 7",51.846457799999996,107.58656585
"Республика Бурятия, Улан-Удэ, ул. Павлова, 76",51.805777899999995,107.62469949999999
"Республика Бурятия, Улан-Удэ, Ключевская ул., 76А",51.819687200000004,107.65844340394648
"ул. Бабушкина, стр. 71",,
"Республика Бурятия, Улан-Удэ, мкр-н Сокол, 1",,
"Республика Бурятия, Улан-Удэ, ул. Борсоева, 3",51.8285431,107.59599795
"Республика Бурятия, Улан-Удэ, Столбовая ул., 60",51.80513415,107.6292753571374
"Республика Бурятия, Улан-Удэ, ул. Смолина, 77",51.8272266,107.5814217
"Республика Бурятия, Улан-Удэ, пр-т 50 лет Октября, 38",,
"Республика Бурятия, Улан-Удэ, пр-т Строителей, 62А",,
"ул. Бабушкина, стр. 71",,
"Республика Бурятия, Улан-Удэ, Комсомольская ул., 2",51.84473455,107.60626255
"ул. Современная, жилые дома",,
"Республика Бурятия, Улан-Удэ, Ермаковская ул., 39",,
"Республика Бурятия, Улан-Удэ, Ключевская ул., 60А/2",51.8204341,107.65194115
"Республика Бурятия, Улан-Удэ, ул. Тулаева, 136",51.8218806,107.67816118659832
"Республика Бурятия, Улан-Удэ, ул. Трубачеева, 144",51.81606035,107.61721937260846
"Республика Бурятия, Улан-Удэ, мкр-н Зелёный, посёлок Старый Зелёный, 13",,
"Республика Бурятия, Улан-Удэ, ул. Гагарина, 20",51.839874300000005,107.59356439999999
"Республика Бурятия, Улан-Удэ, Ключевская ул., 90Б",51.818048450000006,107.6620374
"Республика Бурятия, Улан-Удэ, 104-й квартал, 1/1",51.76311855,107.60984303004338
"Республика Бурятия, Улан-Удэ, мкр-н 140А, 13",,
"Республика Бурятия, Улан-Удэ, мкр-н Вагжанова, Дивизионная ул. 1-й участок, 532",,
"мкр. 106-й, стр. 2, корп. 1",,
"Республика Бурятия, Улан-Удэ, 112-й мкр-н, 23",,
"Республика Бурятия, Улан-Удэ, ул. Революции 1905 года, 38",51.839062549999994,107.58849212484213
"Республика Бурятия, Улан-Удэ, ул. Цивилева, 27",51.838087650000006,107.59167758971655
"Республика Бурятия, Улан-Удэ, мкр-н Батарейка, Удинская ул., 28А",,
"Республика Бурятия, Улан-Удэ, 47-й квартал, Конечная ул., 10к2",51.8081526,107.63917450810627
"Республика Бурятия, Улан-Удэ, мкр-н Шишковка, ул. 3-го Интернационала, 18А",,
"Республика Бурятия, Улан-Удэ, 102-й мкр-н, ул. Ринчино, 35",,
"кв-л 115, стр. 17",,
"Республика Бурятия, Улан-Удэ, ул. Мокрова, 42",51.8053272,107.6425566
"Республика Бурятия, Улан-Удэ, ул. Жердева, 66",51.805665950000005,107.65708491906913
"Республика Бурятия, Улан-Удэ, 110-й мкр-н, 12",,
"мкр. 102, стр. 2",33.998807,45.950236
"Республика Бурятия, Улан-Удэ, мкр-н Аэропорт, 26",,
"ул. Москалёва, д. 5",44.9547771,34.0691557
"Республика Бурятия, Улан-Удэ, Ключевская ул., 6Д",51.8217809,107.6413895
"Республика Бурятия, Улан-Удэ, Зеркальная ул., 41",,
"Республика Бурятия, Улан-Удэ, Ермаковская ул., 39",,
"Республика Бурятия, Улан-Удэ, Профсоюзная ул., 42",51.83103335,107.58998477311471
"Республика Бурятия, Улан-Удэ, Тагильская ул., 4",51.8615564,107.5783985
"Республика Бурятия, Улан-Удэ, Ключевская ул., 82",51.8192413,107.6595618
"ул. Дашиева, д. 7",51.7686302,107.6027447
"Республика Бурятия, Улан-Удэ, мкр-н Восточный, ул. Чкалова, 6",,
"Республика Бурятия, Улан-Удэ, ул. Клыпина, 24",51.848706,107.57642335
"Республика Бурятия, Улан-Удэ, 111-й мкр-н, 34",,
"Республика Бурятия, Улан-Удэ, мкр-н Энергетик, 34",,
"Республика Бурятия, Улан-Удэ, 112-й мкр-н, 27",,
"Республика Бурятия, Улан-Удэ, мкр-н 140А, 14",,
"Республика Бурятия, Улан-Удэ, 113-й мкр-н, 4А",,
"Республика Бурятия, Улан-Удэ, ул. Бабушкина, 23",51.80619205,107.60249662684444
"Республика Бурятия, Улан-Удэ, пр-т Строителей, 44",,
"Республика Бурятия, Улан-Удэ, ул. Шаляпина, 17",51.8321316,107.6365341
"Республика Бурятия, Улан-Удэ, 105-й мкр-н, 35",,
"Республика Бурятия, Улан-Удэ, Ключевская ул., 102",51.81997375,107.6638005749924
"Республика Бурятия, Улан-Удэ, Комсомольская ул., 2А",51.845327600000005,107.60745255
"Республика Бурятия, Улан-Удэ, 102-й мкр-н, ул. Ринчино, 25",,
"Республика Бурятия, Улан-Удэ, Краснофлотская ул., 40",51.81380325,107.67373853406525
"Республика Бурятия, Улан-Удэ, Столбовая ул., 62",51.8049586,107.6304824
"105-й мкр., стр. 1",,
"Республика Бурятия, Улан-Удэ, Медицинская ул., 27А",51.7996318,107.60968685631188
"Республика Бурятия, Улан-Удэ, Тобольская ул., 153А",51.8135473,107.6564002
"Республика Бурятия, Улан-Удэ, 111-й мкр-н, 11",,
"Республика Бурятия, Улан-Удэ, Краснофлотская ул., 48",51.8147322,107.66984192864562
"Республика Бурятия, Улан-Удэ, ул. Добролюбова, 35Б",51.8451393,107.5844722
"мкр. 148-А, стр. 3",,
"Республика Бурятия, Улан-Удэ, пер. Толстого, 2",51.8251525,107.6005238
"Республика Бурятия, Улан-Удэ, Комсомольская ул., 35",51.84488425,107.62759492152672
"Республика Бурятия, Улан-Удэ, ул. Павлова",51.806339,107.6207344
"Республика Бурятия, Улан-Удэ, мкр-н Загорск, ул. Репина, 28",,
"мкр. 148-А, стр. 3",,
"Республика Бурятия, Улан-Удэ, ул. Жердева, 134",51.811194549999996,107.6662894588735
"Республика Бурятия, Улан-Удэ, ул. Гагарина, 73А",51.850098700000004,107.5748342698916
"Республика Бурятия, Улан-Удэ, мкр-н Восточный, ул. Камова, 1",,
"Республика Бурятия, Улан-Удэ, ул. Добролюбова, 37",51.84757635,107.5884161
"Республика Бурятия, Улан-Удэ, 115-й мкр-н, 3",,
"Республика Бурятия, Улан-Удэ, ул. Жердева, 42Бк2",51.8044459,107.6594032
"кв-л 115, стр. 17",,
"Республика Бурятия, Улан-Удэ, ул. Калашникова, 10",51.80536585,107.65411114148586
"Республика Бурятия, Улан-Удэ, мкр-н Никольский, ул. Успенского, 17",,
"Республика Бурятия, Улан-Удэ, Профсоюзная ул., 40",51.83100225,107.58916242340706
"Республика Бурятия, Улан-Удэ, ул. Жердева, 60",51.80541195,107.65573280626333
"ул. Москалёва, стр. 12",,
"Республика Бурятия, городской округ Улан-Удэ,Октябрьский район",51.796009850000004,107.67874216650301
"Республика Бурятия, Улан-Удэ, 104-й квартал, 5",51.77336075,107.5885033
"Республика Бурятия, Улан-Удэ, 102-й мкр-н, ул. Ринчино, 21",,
"ул. Москалёва, стр. 12",,
"кв-л 115, стр. 17",,
"Республика Бурятия, Улан-Удэ, ул. Клыпина, 18",51.8477853,107.57879691223408
"Республика Бурятия, Улан-Удэ, Норильская ул., 6",51.84912765,107.63001550347214
"Республика Бурятия, Улан-Удэ, Столбовая ул., 56",51.805572,107.6330282
"Республика Бурятия, Улан-Удэ, ул. Гагарина, 42",51.84799595,107.58048288218733
"Республика Бурятия, Улан-Удэ, ул. Борсоева, 27",51.839926,107.57932947719124
"Республика Бурятия, Улан-Удэ, ул. Чертенкова, 53",51.853199399999994,107.57713856184571
"Республика Бурятия, Улан-Удэ, 142-й мкр-н, 3",,
"Республика Бурятия, Улан-Удэ, мкр-н Заречный, ул. Мерецкова, 32",,
"Республика Бурятия, Улан-Удэ, Ермаковская ул., 7",,
"мкр. 102, ул. Ринчино, стр. 1",,
"Республика Бурятия, Улан-Удэ, Ростовский пер., 1",51.8276346,107.683762
"Республика Бурятия, Улан-Удэ, ул. Воровского, 27",51.824863,107.6029303
"мкр. Энергетик/мкр. 142, жилые дома",,
"Республика Бурятия, Улан-Удэ, ул. Гастелло, 5",51.8626888,107.7285135
"Республика Бурятия, Улан-Удэ, ул. А.У. Модогоева, 8",,
"Республика Бурятия, Улан-Удэ, ул. Строителей, 34",51.8415416,107.5182039
"Республика Бурятия, Улан-Удэ, ул. Добролюбова, 6А",51.846469299999995,107.58873981075908
"Республика Бурятия, Улан-Удэ, ул. Смолина, 42",51.83512175,107.57785455
"Республика Бурятия, Улан-Удэ, Водопадная ул., 20",51.8633861,107.57595802882571
"Республика Бурятия, Улан-Удэ, мкр-н Вагжанова, Дивизионная ул. 1-й участок, 1",,
"кв-л 115, стр. 16",,
"мкр. 106-й, стр. 5",,
"Республика Бурятия, Улан-Удэ, Октябрьская ул., 2А",51.84490665,107.6096342
"Республика Бурятия, Улан-Удэ, 111-й мкр-н, 34",,
"Республика Бурятия, Улан-Удэ, ул. Шульца, 4",51.8491031,107.57499342931905
"мкр. 140Б, блок-секция 4-5",,
"Республика Бурятия, Улан-Удэ, мкр-н Загорск, Севастопольская ул., 10А",,
"Республика Бурятия, Улан-Удэ, ул. Бабушкина, 9",51.811879450000006,107.59628810748848
"Республика Бурятия, Улан-Удэ, ул. Гагарина, 60",51.85052520000001,107.57633908225385
"Республика Бурятия, Улан-Удэ, ул. Жердева, 132",51.8111222,107.664181
"Республика Бурятия, Улан-Удэ, Ключевская ул., 53",51.8225599,107.64004733284526
"Республика Бурятия, Улан-Удэ, мкр-н Восточный, ул. Королёва, 6",,
"Республика Бурятия, Улан-Удэ, 112-й мкр-н, 35",,
"Республика Бурятия, Улан-Удэ, ул. Воровского, 27",51.824863,107.6029303
"ул. Бабушкина, стр. 4",59.5721416,60.6137539
"Республика Бурятия, Улан-Удэ, ул. Шумяцкого, 7",51.80977795,107.67144125580475
"Республика Бурятия, Улан-Удэ, Современная ул., 1",51.774752899999996,107.58312895586798
"ул. Жердева, д. 42Б, корп. 2",,
"Республика Бурятия, Улан-Удэ, Пристанская ул., 10",51.84209225,107.57356261504745
"Республика Бурятия, Улан-Удэ, Кабанская ул., 20",51.8471613,107.5125628
"Республика Бурятия, Улан-Удэ, ул. Жердева, 58",51.8060243,107.6549301
"Республика Бурятия, Улан-Удэ, 111-й мкр-н, 34",,
"Республика Бурятия, Улан-Удэ, Ермаковская ул., 7",,
"Республика Бурятия, Улан-Удэ, 111-й мкр-н, 28",,
"Республика Бурятия, Улан-Удэ, мкр-н 148А, 1/4",,
"Республика Бурятия, Улан-Удэ, Ключевская ул., 57/2",51.8217809,107.6413895
"Республика Бурятия, Улан-Удэ, ул. Ербанова, 20",51.833338850000004,107.58799275000001
"Республика Бурятия, Улан-Удэ, Норильская ул., 26",51.84798145,107.63170863031358
"мкр. 106-й, стр. 2, корп. 5",,
"Республика Бурятия, Улан-Удэ, мкр-н Кирзавод, Кирпичная ул., 1",,
"Республика Бурятия, Улан-Удэ, ул. Смолина, 67к1",51.8360594,107.5773327
"Республика Бурятия, Улан-Удэ, ул. Иванова, 10",51.84447175,107.63123722202593
"Республика Бурятия, Улан-Удэ, 102-й мкр-н, ул. Ринчино, 28",,
"Республика Бурятия, Улан-Удэ, ул. Хоца Намсараева, 6",51.841658800000005,107.5951068
"Республика Бурятия, Улан-Удэ, мкр-н Загорск, Краснодонская ул., 23",,
"кв-л 115, стр. 17",,
"Республика Бурятия, Улан-Удэ, 47-й квартал, Конечная ул., 4",51.8067245,107.63980765552716
"Республика Бурятия, Улан-Удэ, Кабанская ул., 16",51.8466707,107.5140309
"мкр. 102, стр. 1",33.998807,45.950236
"ул. Ключевская, д. 90Г, корп. 2",,
"Республика Бурятия, Улан-Удэ, Зеркальная ул., 41",,
"Республика Бурятия, Улан-Удэ, Норильская ул., 26",51.84798145,107.63170863031358
"Республика Бурятия, Улан-Удэ, 105-й мкр-н, 43",,
"Республика Бурятия, Улан-Удэ, Астраханская ул., 19",,
"Республика Бурятия, Улан-Удэ, Забайкальская ул., 8Ак1",51.7786593,107.5721105
"Республика Бурятия, Улан-Удэ, ул. Борсоева, 5",51.8293088,107.59506552776946
"Республика Бурятия, Улан-Удэ, ул. Фрунзе, 17",51.8299617,107.59347835
"Республика Бурятия, Улан-Удэ, 105-й мкр-н, 41/4",,
"пр-т 50-летие Октября, д. 2/1",,
"Республика Бурятия, Улан-Удэ, пр-т Строителей, 44",,
"Республика Бурятия, Улан-Удэ, ул. Бабушкина, 11",51.811548200000004,107.59684255000002
"Республика Бурятия, Улан-Удэ, ул. Трубачеева, 156",51.8190719,107.6220199
"мкр. 148-А, стр. 2",,
"Республика Бурятия, Улан-Удэ, Комсомольская ул., 1В",51.8451881,107.6250455
"Республика Бурятия, Улан-Удэ, Ключевская ул., 60Б/4",51.8217809,107.6413895
"ул. Бабушкина, стр. 4",59.5721416,60.6137539
"ул. Бабушкина, стр. 2",59.5721416,60.6137539
"Республика Бурятия, Улан-Удэ, Тобольская ул., 161",51.81907945,107.6690174658751
"Республика Бурятия, Улан-Удэ, мкр-н Загорск, ул. Родины, 7/3",,
"115 мкр., д. 9",32.9307945,35.1414689
"Республика Бурятия, Улан-Удэ, мкр-н Стеклозавод, Хрустальная ул., 2",,
"Республика Бурятия, Улан-Удэ, ул. Сахьяновой, 23В",51.80890275,107.62672797693563
"Республика Бурятия, Улан-Удэ, ул. Иванова, 19",51.84545785,107.6352026
"Республика Бурятия, Улан-Удэ, 105-й мкр-н, 44",,
"Республика Бурятия, Улан-Удэ, Краснофлотская ул., 16",51.815285849999995,107.67084989999998
"мкр. 106-й, стр. 2",,
"Республика Бурятия, Улан-Удэ, Лысогорская ул., уч85",51.8510731,107.5955768
"Республика Бурятия, Улан-Удэ, мкр-н Восточный",,
"Республика Бурятия, Улан-Удэ, 47-й квартал, Конечная ул., 10к2",51.8081526,107.63917450810627
"Республика Бурятия, Улан-Удэ, ул. А.У. Модогоева, 1А",,
"Республика Бурятия, Улан-Удэ, ул. Гагарина, 53",51.8459117,107.58222964999999
"Республика Бурятия, Улан-Удэ, Геологическая ул., 20",51.810547,107.60283124947301
"Республика Бурятия, Улан-Удэ, Тобольская ул., 57",51.815821,107.6607574
"Республика Бурятия, Улан-Удэ, ул. Бабушкина, 23",51.80619205,107.60249662684444
"Республика Бурятия, Улан-Удэ, ул. Мокрова, 30",51.8042637,107.6543924
"Республика Бурятия, Улан-Удэ, 102-й мкр-н, ул. Ринчино, 15",,
"Республика Бурятия, Улан-Удэ, мкр-н Восточный, ул. Королёва, 6",,
"Республика Бурятия, Улан-Удэ, ул. Гагарина, 17",51.83617905,107.59706795535944
"Республика Бурятия, Улан-Удэ, Комсомольская ул., 24",51.84795495,107.61891455
"Республика Бурятия, Улан-Удэ, ул. Жердева, 136",51.811595100000005,107.66636854591515
"Республика Бурятия, Улан-Удэ, ул. Трубачеева, 144А",51.815243249999995,107.61788567383796
"Республика Бурятия, Улан-Удэ, ул. Чаадаева, 3",51.8465807,107.62805105000001
"Республика Бурятия, Улан-Удэ, Ермаковская ул., 39",,
"мкр. 105-й, д. 44",,
"Республика Бурятия, Улан-Удэ, мкр-н Загорск, Краснодонская ул., 23",,
"Республика Бурятия, Улан-Удэ, Ключевская ул., 6Д",51.8215801,107.6302315
"мкр. Энергетик, стр. 11",,
"Республика Бурятия, Улан-Удэ, пр-т Строителей, 12",,
"Республика Бурятия, Улан-Удэ, Комсомольская ул., 27",51.846216,107.6235375409529
"Республика Бурятия, Улан-Удэ, Кабанская ул., 20",51.847466600000004,107.51217787740681
"Республика Бурятия, Улан-Удэ, мкр-н Аэропорт, 25",,
"Республика Бурятия, Улан-Удэ, 112-й мкр-н, 32",,
"Республика Бурятия, Улан-Удэ, пр-т Строителей, 78",,
"Республика Бурятия, Улан-Удэ, 102-й мкр-н, ул. Ринчино, 5",,
"Республика Бурятия, Улан-Удэ, 111-й мкр-н, 7",,
"Республика Бурятия, Улан-Удэ, ул. Шульца, 2",51.84871495,107.5744129789024
"Республика Бурятия, Улан-Удэ, мкр-н Аэропорт, 31А",,
"Республика Бурятия, Улан-Удэ, мкр-н Шишковка, Садовая ул., 4",,
"Республика Бурятия, Улан-Удэ, ул. Гастелло, 4",51.8626888,107.7285135
"Республика Бурятия, Улан-Удэ, пр-т Строителей, 64",,
"Республика Бурятия, Улан-Удэ, пр-т Строителей, 34",,
"Республика Бурятия, Улан-Удэ, Тобольская ул., 61",51.81454465,107.65860857462636
"Республика Бурятия, Улан-Удэ, мкр-н 140Б, 2",,
"Республика Бурятия, Улан-Удэ, ул. Бабушкина, 178",51.8001946,107.60391073074203
"Республика Бурятия, Улан-Удэ, ул. Толстого, 14",51.824512850000005,107.59977115000001
"Республика Бурятия, Улан-Удэ, Ключевская ул., 61",51.8215801,107.6302315
"Республика Бурятия, Улан-Удэ, мкр-н Аэропорт, 23",,
"мкр. 148-А, стр. 3",,
"Республика Бурятия, Улан-Удэ, мкр-н Энергетик, 46",,
"Республика Бурятия, Улан-Удэ, 112-й мкр-н, 24",,
"Республика Бурятия, Улан-Удэ, ул. Бабушкина, 23",51.80619205,107.60249662684444
